{"type": "rc", "roll": 1401, "pitch": 1401, "throttle": 1401, "yaw": 885, "system_time": 1778233531.479784}
{"type": "attitude", "roll": 0.1, "pitch": 0.2, "yaw": 7, "system_time": 1778233531.4800808}
{"type": "rc", "roll": 1401, "pitch": 1401, "throttle": 1401, "yaw": 885, "system_time": 1778233531.4801521}
{"type": "attitude", "roll": 0.1, "pitch": 0.2, "yaw": 7, "system_time": 1778233531.4802098}
{"type": "rc", "roll": 1401, "pitch": 1401, "throttle": 1401, "yaw": 885, "system_time": 1778233531.480258}
{"type": "analog", "vbat": 23.5, "current": 0.0, "system_time": 1778233531.488998}
{"type": "attitude", "roll": 0.1, "pitch": 0.2, "yaw": 7, "system_time": 1778233531.559493}
{"type": "rc", "roll": 1401, "pitch": 1401, "throttle": 1401, "yaw": 885, "system_time": 1778233531.5727549}
{"type": "attitude", "roll": 0.1, "pitch": 0.2, "yaw": 7, "system_time": 1778233532.490895}
{"type": "attitude", "roll": 0.1, "pitch": 0.2, "yaw": 7, "system_time": 1778233532.593162}
{"type": "rc", "roll": 1500, "pitch": 1500, "throttle": 1500, "yaw": 1000, "system_time": 1778233532.6052082}
{"type": "attitude", "roll": 0.1, "pitch": 0.2, "yaw": 7, "system_time": 1778233533.722383}
{"type": "attitude", "roll": 0.1, "pitch": 0.2, "yaw": 7, "system_time": 1778233533.8050208}
{"type": "rc", "roll": 1500, "pitch": 1500, "throttle": 1500, "yaw": 1000, "system_time": 1778233533.818222}
{"type": "attitude", "roll": 0.1, "pitch": 0.2, "yaw": 7, "system_time": 1778233535.0175219}
{"type": "rc", "roll": 1500, "pitch": 1500, "throttle": 1500, "yaw": 1000, "system_time": 1778233535.030676}
{"type": "attitude", "roll": 0.1, "pitch": 0.2, "yaw": 7, "system_time": 1778233535.118036}
{"type": "rc", "roll": 1500, "pitch": 1500, "throttle": 1500, "yaw": 1000, "system_time": 1778233535.134082}
{"type": "attitude", "roll": 0.1, "pitch": 0.2, "yaw": 7, "system_time": 1778233536.154418}
{"type": "attitude", "roll": 0.1, "pitch": 0.2, "yaw": 7, "system_time": 1778233536.34199}
{"type": "rc", "roll": 1500, "pitch": 1500, "throttle": 1500, "yaw": 1000, "system_time": 1778233536.355063}
{"type": "attitude", "roll": 0.1, "pitch": 0.2, "yaw": 7, "system_time": 1778233537.355349}
{"type": "attitude", "roll": 0.1, "pitch": 0.2, "yaw": 7, "system_time": 1778233538.067351}
{"type": "attitude", "roll": 0.1, "pitch": 0.2, "yaw": 7, "system_time": 1778233538.1805298}
{"type": "attitude", "roll": 0.1, "pitch": 0.2, "yaw": 7, "system_time": 1778233541.0050712}
{"type": "attitude", "roll": 0.1, "pitch": 0.2, "yaw": 7, "system_time": 1778233541.71996}
{"type": "attitude", "roll": 0.1, "pitch": 0.2, "yaw": 7, "system_time": 1778233541.931967}
{"type": "attitude", "roll": 0.1, "pitch": 0.2, "yaw": 7, "system_time": 1778233542.424119}
{"type": "rc", "roll": 1500, "pitch": 1500, "throttle": 1500, "yaw": 1599, "system_time": 1778233542.436772}
{"type": "attitude", "roll": 0.1, "pitch": 0.2, "yaw": 7, "system_time": 1778233542.943083}
{"type": "attitude", "roll": 0.1, "pitch": 0.2, "yaw": 7, "system_time": 1778233543.449662}
{"type": "attitude", "roll": 0.1, "pitch": 0.2, "yaw": 7, "system_time": 1778233543.956667}
{"type": "attitude", "roll": 0.1, "pitch": 0.2, "yaw": 7, "system_time": 1778233544.566763}
{"type": "rc", "roll": 1500, "pitch": 1500, "throttle": 1500, "yaw": 1599, "system_time": 1778233544.5794299}
{"type": "attitude", "roll": 0.1, "pitch": 0.2, "yaw": 7, "system_time": 1778233544.6770492}
{"type": "attitude", "roll": 0.1, "pitch": 0.2, "yaw": 7, "system_time": 1778233544.759881}
{"type": "rc", "roll": 1500, "pitch": 1500, "throttle": 1500, "yaw": 1599, "system_time": 1778233544.773917}
{"type": "attitude", "roll": 0.1, "pitch": 0.2, "yaw": 7, "system_time": 1778233545.067054}
{"type": "attitude", "roll": 0.1, "pitch": 0.2, "yaw": 7, "system_time": 1778233545.1692202}
{"type": "attitude", "roll": 0.1, "pitch": 0.2, "yaw": 7, "system_time": 1778233545.577873}
{"type": "attitude", "roll": 0.0, "pitch": 0.2, "yaw": 6, "system_time": 1778233547.209578}
{"type": "attitude", "roll": 0.0, "pitch": -0.1, "yaw": 6, "system_time": 1778233547.517202}
{"type": "attitude", "roll": 0.0, "pitch": 0.0, "yaw": 6, "system_time": 1778233547.718123}
{"type": "attitude", "roll": 0.0, "pitch": 0.2, "yaw": 6, "system_time": 1778233548.2215738}
{"type": "rc", "roll": 1500, "pitch": 1500, "throttle": 1500, "yaw": 1599, "system_time": 1778233548.234586}
{"type": "attitude", "roll": 0.0, "pitch": 0.2, "yaw": 6, "system_time": 1778233548.4314728}
{"type": "attitude", "roll": 0.0, "pitch": 0.2, "yaw": 6, "system_time": 1778233548.817912}
{"type": "rc", "roll": 1500, "pitch": 1500, "throttle": 1500, "yaw": 1599, "system_time": 1778233548.832434}
{"type": "attitude", "roll": 0.0, "pitch": 0.2, "yaw": 6, "system_time": 1778233549.229481}
{"type": "rc", "roll": 1500, "pitch": 1500, "throttle": 1500, "yaw": 1599, "system_time": 1778233549.2419908}
{"type": "attitude", "roll": 0.0, "pitch": 0.2, "yaw": 6, "system_time": 1778233549.7342038}
{"type": "rc", "roll": 1500, "pitch": 1500, "throttle": 1500, "yaw": 1599, "system_time": 1778233549.74739}
{"type": "attitude", "roll": 0.0, "pitch": 0.2, "yaw": 6, "system_time": 1778233550.152684}
{"type": "attitude", "roll": 0.0, "pitch": 0.2, "yaw": 6, "system_time": 1778233550.251814}
{"type": "rc", "roll": 1500, "pitch": 1500, "throttle": 1500, "yaw": 1599, "system_time": 1778233550.264914}
{"type": "attitude", "roll": 0.0, "pitch": 0.2, "yaw": 6, "system_time": 1778233550.5662808}
{"type": "attitude", "roll": 0.0, "pitch": 0.2, "yaw": 6, "system_time": 1778233550.66583}
{"type": "attitude", "roll": 0.0, "pitch": 0.2, "yaw": 6, "system_time": 1778233550.963632}
{"type": "attitude", "roll": 0.0, "pitch": 0.2, "yaw": 6, "system_time": 1778233551.277573}
{"type": "attitude", "roll": 0.0, "pitch": 0.2, "yaw": 6, "system_time": 1778233551.379827}
{"type": "attitude", "roll": 0.0, "pitch": 0.2, "yaw": 6, "system_time": 1778233551.4699452}
{"type": "rc", "roll": 1500, "pitch": 1500, "throttle": 1500, "yaw": 1599, "system_time": 1778233551.482986}
{"type": "attitude", "roll": 0.0, "pitch": 0.2, "yaw": 6, "system_time": 1778233551.877027}
{"type": "rc", "roll": 1500, "pitch": 1500, "throttle": 1500, "yaw": 1599, "system_time": 1778233551.8886652}
{"type": "attitude", "roll": 0.0, "pitch": 0.2, "yaw": 6, "system_time": 1778233552.381593}
{"type": "rc", "roll": 1500, "pitch": 1500, "throttle": 1500, "yaw": 1599, "system_time": 1778233552.394557}
{"type": "attitude", "roll": 0.0, "pitch": 0.2, "yaw": 6, "system_time": 1778233552.800378}
{"type": "attitude", "roll": 0.0, "pitch": 0.2, "yaw": 6, "system_time": 1778233552.992575}
{"type": "attitude", "roll": 0.0, "pitch": 0.2, "yaw": 6, "system_time": 1778233553.717084}
{"type": "attitude", "roll": 0.0, "pitch": 0.2, "yaw": 6, "system_time": 1778233556.4526389}
{"type": "attitude", "roll": 0.0, "pitch": 0.2, "yaw": 6, "system_time": 1778233556.647768}
{"type": "rc", "roll": 1500, "pitch": 1500, "throttle": 1500, "yaw": 1599, "system_time": 1778233556.659638}
{"type": "analog", "vbat": 23.5, "current": 0.06, "system_time": 1778233557.620291}
{"type": "attitude", "roll": 0.0, "pitch": 0.2, "yaw": 6, "system_time": 1778233558.9793868}
{"type": "attitude", "roll": 0.0, "pitch": 0.2, "yaw": 6, "system_time": 1778233559.170753}
{"type": "rc", "roll": 1500, "pitch": 1500, "throttle": 1500, "yaw": 1599, "system_time": 1778233559.183054}
{"type": "attitude", "roll": 0.0, "pitch": 0.2, "yaw": 6, "system_time": 1778233559.3817658}
{"type": "rc", "roll": 1500, "pitch": 1500, "throttle": 1500, "yaw": 1599, "system_time": 1778233559.396246}
{"type": "attitude", "roll": 0.0, "pitch": 0.2, "yaw": 6, "system_time": 1778233559.598305}
{"type": "attitude", "roll": 0.0, "pitch": 0.2, "yaw": 6, "system_time": 1778233559.887855}
{"type": "rc", "roll": 1500, "pitch": 1500, "throttle": 1500, "yaw": 1599, "system_time": 1778233559.90005}
{"type": "attitude", "roll": 0.0, "pitch": 0.2, "yaw": 6, "system_time": 1778233560.594452}
{"type": "rc", "roll": 1500, "pitch": 1500, "throttle": 1500, "yaw": 1599, "system_time": 1778233560.620666}
{"type": "analog", "vbat": 23.4, "current": 0.06, "system_time": 1778233561.1452632}
{"type": "attitude", "roll": 0.0, "pitch": 0.2, "yaw": 6, "system_time": 1778233562.623122}
{"type": "rc", "roll": 1500, "pitch": 1500, "throttle": 1500, "yaw": 1599, "system_time": 1778233562.636427}
{"type": "attitude", "roll": 0.0, "pitch": 0.2, "yaw": 7, "system_time": 1778233562.933707}
{"type": "attitude", "roll": 0.0, "pitch": 0.2, "yaw": 7, "system_time": 1778233563.43996}
{"type": "attitude", "roll": 0.0, "pitch": 0.2, "yaw": 7, "system_time": 1778233563.7446048}
{"type": "rc", "roll": 1500, "pitch": 1500, "throttle": 1500, "yaw": 1599, "system_time": 1778233563.757047}
{"type": "attitude", "roll": 0.0, "pitch": 0.2, "yaw": 7, "system_time": 1778233563.956809}
{"type": "attitude", "roll": 0.0, "pitch": 0.2, "yaw": 7, "system_time": 1778233564.1605709}
{"type": "attitude", "roll": 0.0, "pitch": 0.2, "yaw": 7, "system_time": 1778233564.2462258}
{"type": "rc", "roll": 1500, "pitch": 1500, "throttle": 1500, "yaw": 1599, "system_time": 1778233564.261755}
{"type": "attitude", "roll": 0.0, "pitch": 0.2, "yaw": 7, "system_time": 1778233564.4531891}
{"type": "rc", "roll": 1500, "pitch": 1500, "throttle": 1500, "yaw": 1599, "system_time": 1778233564.4661188}
{"type": "attitude", "roll": 0.0, "pitch": 0.2, "yaw": 7, "system_time": 1778233564.756211}
{"type": "attitude", "roll": 0.0, "pitch": 0.2, "yaw": 7, "system_time": 1778233564.95615}
{"type": "rc", "roll": 1500, "pitch": 1500, "throttle": 1500, "yaw": 1599, "system_time": 1778233564.972301}
{"type": "attitude", "roll": 0.0, "pitch": 0.2, "yaw": 7, "system_time": 1778233565.157263}
{"type": "analog", "vbat": 23.5, "current": 0.06, "system_time": 1778233566.153064}
{"type": "attitude", "roll": 0.0, "pitch": 0.2, "yaw": 7, "system_time": 1778233568.110755}
{"type": "attitude", "roll": 0.0, "pitch": 0.2, "yaw": 7, "system_time": 1778233568.4064782}
{"type": "attitude", "roll": 0.0, "pitch": 0.2, "yaw": 7, "system_time": 1778233569.437383}
{"type": "attitude", "roll": 0.0, "pitch": 0.2, "yaw": 7, "system_time": 1778233569.519542}
{"type": "rc", "roll": 1500, "pitch": 1500, "throttle": 1500, "yaw": 1000, "system_time": 1778233569.532951}
{"type": "attitude", "roll": 0.0, "pitch": 0.2, "yaw": 7, "system_time": 1778233569.63215}
{"type": "analog", "vbat": 23.5, "current": 0.0, "system_time": 1778233569.691518}
{"type": "attitude", "roll": 0.0, "pitch": 0.2, "yaw": 7, "system_time": 1778233569.8345642}
{"type": "rc", "roll": 1500, "pitch": 1500, "throttle": 1500, "yaw": 1000, "system_time": 1778233569.847295}
{"type": "attitude", "roll": 0.0, "pitch": 0.2, "yaw": 7, "system_time": 1778233569.9257028}
{"type": "rc", "roll": 1500, "pitch": 1500, "throttle": 1500, "yaw": 1000, "system_time": 1778233569.939552}
{"type": "attitude", "roll": 0.0, "pitch": 0.2, "yaw": 7, "system_time": 1778233572.261172}
{"type": "rc", "roll": 1500, "pitch": 1500, "throttle": 1500, "yaw": 1000, "system_time": 1778233572.27355}
{"type": "attitude", "roll": 0.0, "pitch": 0.2, "yaw": 7, "system_time": 1778233573.986602}
{"type": "rc", "roll": 1500, "pitch": 1500, "throttle": 1500, "yaw": 1000, "system_time": 1778233574.001708}
{"type": "attitude", "roll": 0.0, "pitch": 0.2, "yaw": 7, "system_time": 1778233574.205593}
{"type": "attitude", "roll": 0.0, "pitch": 0.2, "yaw": 7, "system_time": 1778233574.307007}
{"type": "attitude", "roll": 0.0, "pitch": 0.2, "yaw": 7, "system_time": 1778233574.406956}
{"type": "attitude", "roll": 0.0, "pitch": 0.2, "yaw": 7, "system_time": 1778233575.204054}
{"type": "rc", "roll": 1500, "pitch": 1500, "throttle": 1500, "yaw": 1000, "system_time": 1778233575.2180831}
{"type": "attitude", "roll": 0.0, "pitch": 0.2, "yaw": 7, "system_time": 1778233575.304904}
{"type": "rc", "roll": 1500, "pitch": 1500, "throttle": 1500, "yaw": 1000, "system_time": 1778233575.318223}
{"type": "attitude", "roll": 0.0, "pitch": 0.2, "yaw": 7, "system_time": 1778233575.408782}
{"type": "rc", "roll": 1500, "pitch": 1500, "throttle": 1500, "yaw": 1000, "system_time": 1778233575.421321}
{"type": "attitude", "roll": 0.0, "pitch": 0.2, "yaw": 7, "system_time": 1778233575.5145128}
{"type": "rc", "roll": 1500, "pitch": 1500, "throttle": 1500, "yaw": 1000, "system_time": 1778233575.527783}
{"type": "attitude", "roll": 0.0, "pitch": 0.2, "yaw": 7, "system_time": 1778233576.328066}
{"type": "rc", "roll": 1500, "pitch": 1500, "throttle": 1500, "yaw": 1000, "system_time": 1778233576.338196}
{"type": "attitude", "roll": 0.0, "pitch": 0.2, "yaw": 7, "system_time": 1778233577.750828}
{"type": "attitude", "roll": 0.0, "pitch": 0.2, "yaw": 7, "system_time": 1778233577.950551}
{"type": "rc", "roll": 1500, "pitch": 1500, "throttle": 1500, "yaw": 1000, "system_time": 1778233577.962837}
{"type": "attitude", "roll": 0.0, "pitch": 0.2, "yaw": 7, "system_time": 1778233578.0434802}
{"type": "rc", "roll": 1500, "pitch": 1500, "throttle": 1500, "yaw": 1000, "system_time": 1778233578.0663521}
{"type": "analog", "vbat": 23.6, "current": 0.0, "system_time": 1778233578.2029288}
{"type": "analog", "vbat": 23.5, "current": 0.0, "system_time": 1778233578.706903}
{"type": "attitude", "roll": 0.0, "pitch": 0.2, "yaw": 7, "system_time": 1778233578.858059}
{"type": "rc", "roll": 1500, "pitch": 1500, "throttle": 1500, "yaw": 1000, "system_time": 1778233578.8712478}
{"type": "attitude", "roll": 0.0, "pitch": 0.2, "yaw": 7, "system_time": 1778233579.6885529}
{"type": "attitude", "roll": 0.0, "pitch": 0.2, "yaw": 7, "system_time": 1778233580.4863281}
{"type": "rc", "roll": 1500, "pitch": 1500, "throttle": 1500, "yaw": 1000, "system_time": 1778233580.498539}
{"type": "attitude", "roll": 0.0, "pitch": 0.2, "yaw": 7, "system_time": 1778233580.696197}
{"type": "analog", "vbat": 23.5, "current": 0.0, "system_time": 1778233580.730569}
{"type": "attitude", "roll": 0.0, "pitch": 0.2, "yaw": 7, "system_time": 1778233581.602865}
{"type": "rc", "roll": 1500, "pitch": 1500, "throttle": 1500, "yaw": 1000, "system_time": 1778233581.6149518}
{"type": "attitude", "roll": 0.0, "pitch": 0.2, "yaw": 7, "system_time": 1778233581.70332}
{"type": "rc", "roll": 1500, "pitch": 1500, "throttle": 1500, "yaw": 1000, "system_time": 1778233581.715389}
{"type": "attitude", "roll": 0.0, "pitch": 0.2, "yaw": 7, "system_time": 1778233581.9238038}
{"type": "attitude", "roll": 0.0, "pitch": 0.2, "yaw": 7, "system_time": 1778233583.8616178}
{"type": "attitude", "roll": 0.0, "pitch": 0.2, "yaw": 7, "system_time": 1778233583.956653}
{"type": "attitude", "roll": 0.0, "pitch": 0.2, "yaw": 7, "system_time": 1778233584.146165}
{"type": "rc", "roll": 1500, "pitch": 1500, "throttle": 1500, "yaw": 1000, "system_time": 1778233584.158518}
{"type": "attitude", "roll": 0.0, "pitch": 0.2, "yaw": 7, "system_time": 1778233584.755145}
{"type": "rc", "roll": 1500, "pitch": 1500, "throttle": 1500, "yaw": 1000, "system_time": 1778233584.7690392}
{"type": "attitude", "roll": 0.0, "pitch": 0.2, "yaw": 7, "system_time": 1778233584.854486}
{"type": "rc", "roll": 1500, "pitch": 1500, "throttle": 1500, "yaw": 1000, "system_time": 1778233584.8697422}
{"type": "attitude", "roll": 0.0, "pitch": 0.2, "yaw": 7, "system_time": 1778233585.7829702}
{"type": "attitude", "roll": 0.0, "pitch": 0.2, "yaw": 7, "system_time": 1778233585.86547}
{"type": "rc", "roll": 1500, "pitch": 1500, "throttle": 1500, "yaw": 1000, "system_time": 1778233585.877586}
{"type": "attitude", "roll": 0.0, "pitch": 0.2, "yaw": 7, "system_time": 1778233586.0746381}
{"type": "rc", "roll": 1500, "pitch": 1500, "throttle": 1500, "yaw": 1000, "system_time": 1778233586.087021}
{"type": "attitude", "roll": 0.0, "pitch": 0.2, "yaw": 7, "system_time": 1778233586.178234}
{"type": "rc", "roll": 1500, "pitch": 1500, "throttle": 1500, "yaw": 1000, "system_time": 1778233586.187519}
{"type": "attitude", "roll": 0.0, "pitch": 0.2, "yaw": 7, "system_time": 1778233586.395173}
{"type": "attitude", "roll": 0.0, "pitch": 0.2, "yaw": 7, "system_time": 1778233586.4796019}
{"type": "rc", "roll": 1500, "pitch": 1500, "throttle": 1500, "yaw": 1000, "system_time": 1778233586.49981}
{"type": "analog", "vbat": 23.5, "current": 0.13, "system_time": 1778233587.743525}
{"type": "attitude", "roll": 0.0, "pitch": 0.2, "yaw": 7, "system_time": 1778233588.199917}
{"type": "rc", "roll": 1500, "pitch": 1500, "throttle": 1500, "yaw": 1000, "system_time": 1778233588.217522}
{"type": "attitude", "roll": 0.0, "pitch": 0.2, "yaw": 7, "system_time": 1778233589.0164769}
{"type": "rc", "roll": 1500, "pitch": 1500, "throttle": 1500, "yaw": 1000, "system_time": 1778233589.026242}
{"type": "attitude", "roll": 0.0, "pitch": 0.2, "yaw": 7, "system_time": 1778233589.133347}
{"type": "attitude", "roll": 0.0, "pitch": 0.2, "yaw": 7, "system_time": 1778233590.149198}
{"type": "attitude", "roll": 0.0, "pitch": 0.2, "yaw": 7, "system_time": 1778233590.354461}
{"type": "attitude", "roll": 0.0, "pitch": 0.2, "yaw": 7, "system_time": 1778233590.5447848}
{"type": "rc", "roll": 1500, "pitch": 1500, "throttle": 1500, "yaw": 1000, "system_time": 1778233590.563657}
{"type": "attitude", "roll": 0.0, "pitch": 0.2, "yaw": 7, "system_time": 1778233591.356096}
{"type": "rc", "roll": 1500, "pitch": 1500, "throttle": 1500, "yaw": 1000, "system_time": 1778233591.3700428}
{"type": "attitude", "roll": 0.0, "pitch": 0.2, "yaw": 7, "system_time": 1778233592.4669702}
{"type": "rc", "roll": 1500, "pitch": 1500, "throttle": 1500, "yaw": 1000, "system_time": 1778233592.4792929}
{"type": "attitude", "roll": 0.0, "pitch": 0.2, "yaw": 7, "system_time": 1778233592.5764449}
{"type": "rc", "roll": 1500, "pitch": 1500, "throttle": 1500, "yaw": 1000, "system_time": 1778233592.592226}
{"type": "attitude", "roll": 0.0, "pitch": 0.2, "yaw": 7, "system_time": 1778233592.683415}
{"type": "attitude", "roll": 0.0, "pitch": 0.2, "yaw": 7, "system_time": 1778233592.875005}
{"type": "rc", "roll": 1500, "pitch": 1500, "throttle": 1500, "yaw": 1000, "system_time": 1778233592.8874738}
{"type": "attitude", "roll": 0.0, "pitch": 0.2, "yaw": 7, "system_time": 1778233592.977653}
{"type": "rc", "roll": 1500, "pitch": 1500, "throttle": 1500, "yaw": 1000, "system_time": 1778233592.99357}
{"type": "attitude", "roll": 0.0, "pitch": 0.2, "yaw": 7, "system_time": 1778233593.200334}
{"type": "attitude", "roll": 0.0, "pitch": 0.2, "yaw": 7, "system_time": 1778233593.40131}
{"type": "attitude", "roll": 0.0, "pitch": 0.2, "yaw": 7, "system_time": 1778233594.113456}
{"type": "rc", "roll": 1500, "pitch": 1500, "throttle": 1500, "yaw": 1000, "system_time": 1778233594.1247191}
{"type": "analog", "vbat": 23.5, "current": 0.0, "system_time": 1778233594.264181}
{"type": "analog", "vbat": 23.5, "current": 0.0, "system_time": 1778233594.758941}
{"type": "analog", "vbat": 23.5, "current": 0.06, "system_time": 1778233595.277409}
{"type": "attitude", "roll": 0.0, "pitch": 0.2, "yaw": 7, "system_time": 1778233595.527764}
{"type": "attitude", "roll": 0.0, "pitch": 0.2, "yaw": 7, "system_time": 1778233595.638554}
{"type": "attitude", "roll": 0.1, "pitch": 0.2, "yaw": 7, "system_time": 1778233599.192586}
{"type": "attitude", "roll": 0.0, "pitch": 0.2, "yaw": 7, "system_time": 1778233599.488867}
{"type": "attitude", "roll": 0.0, "pitch": 0.2, "yaw": 7, "system_time": 1778233600.393482}
{"type": "rc", "roll": 1500, "pitch": 1500, "throttle": 1500, "yaw": 1000, "system_time": 1778233600.4063208}
{"type": "attitude", "roll": 0.0, "pitch": 0.2, "yaw": 7, "system_time": 1778233600.5053198}
{"type": "analog", "vbat": 23.5, "current": 0.0, "system_time": 1778233600.7815008}
{"type": "attitude", "roll": 0.0, "pitch": 0.2, "yaw": 7, "system_time": 1778233601.4157498}
{"type": "rc", "roll": 1500, "pitch": 1500, "throttle": 1500, "yaw": 1000, "system_time": 1778233601.430197}
{"type": "attitude", "roll": 0.0, "pitch": 0.2, "yaw": 7, "system_time": 1778233601.5171158}
{"type": "rc", "roll": 1500, "pitch": 1500, "throttle": 1500, "yaw": 1000, "system_time": 1778233601.529349}
{"type": "attitude", "roll": 0.1, "pitch": 0.2, "yaw": 7, "system_time": 1778233603.9460568}
{"type": "rc", "roll": 1500, "pitch": 1500, "throttle": 1500, "yaw": 1000, "system_time": 1778233603.9581661}
{"type": "attitude", "roll": 0.0, "pitch": 0.2, "yaw": 7, "system_time": 1778233605.3757281}
{"type": "attitude", "roll": 0.0, "pitch": 0.2, "yaw": 7, "system_time": 1778233605.680274}
{"type": "analog", "vbat": 23.5, "current": 0.06, "system_time": 1778233605.802089}
{"type": "attitude", "roll": 0.0, "pitch": 0.2, "yaw": 7, "system_time": 1778233605.88422}
{"type": "attitude", "roll": 0.0, "pitch": 0.2, "yaw": 7, "system_time": 1778233606.683829}
{"type": "rc", "roll": 1500, "pitch": 1500, "throttle": 1500, "yaw": 1000, "system_time": 1778233606.696803}
{"type": "attitude", "roll": 0.0, "pitch": 0.2, "yaw": 7, "system_time": 1778233606.787491}
{"type": "rc", "roll": 1500, "pitch": 1500, "throttle": 1500, "yaw": 1000, "system_time": 1778233606.8012779}
{"type": "attitude", "roll": 0.0, "pitch": 0.2, "yaw": 7, "system_time": 1778233606.896845}
{"type": "rc", "roll": 1500, "pitch": 1500, "throttle": 1500, "yaw": 1000, "system_time": 1778233606.909992}
{"type": "attitude", "roll": 0.0, "pitch": 0.2, "yaw": 7, "system_time": 1778233607.9015412}
{"type": "rc", "roll": 1500, "pitch": 1500, "throttle": 1500, "yaw": 1000, "system_time": 1778233607.9167418}
{"type": "attitude", "roll": 0.0, "pitch": 0.2, "yaw": 7, "system_time": 1778233608.724947}
{"type": "attitude", "roll": 0.0, "pitch": 0.2, "yaw": 7, "system_time": 1778233608.8275478}
{"type": "attitude", "roll": 0.0, "pitch": 0.2, "yaw": 7, "system_time": 1778233609.627469}
{"type": "rc", "roll": 1500, "pitch": 1500, "throttle": 1500, "yaw": 1000, "system_time": 1778233609.6399639}
{"type": "analog", "vbat": 23.6, "current": 0.06, "system_time": 1778233609.80691}
{"type": "attitude", "roll": 0.0, "pitch": 0.2, "yaw": 7, "system_time": 1778233609.837993}
{"type": "rc", "roll": 1500, "pitch": 1500, "throttle": 1500, "yaw": 1000, "system_time": 1778233609.851667}
{"type": "attitude", "roll": 0.0, "pitch": 0.2, "yaw": 7, "system_time": 1778233609.966194}
{"type": "attitude", "roll": 0.0, "pitch": 0.2, "yaw": 8, "system_time": 1778233610.948531}
{"type": "rc", "roll": 1500, "pitch": 1500, "throttle": 1500, "yaw": 1000, "system_time": 1778233610.9663832}
{"type": "attitude", "roll": 0.0, "pitch": 0.2, "yaw": 8, "system_time": 1778233611.0484962}
{"type": "rc", "roll": 1500, "pitch": 1500, "throttle": 1500, "yaw": 1000, "system_time": 1778233611.064626}
{"type": "attitude", "roll": 0.0, "pitch": 0.2, "yaw": 8, "system_time": 1778233611.149119}
{"type": "rc", "roll": 1500, "pitch": 1500, "throttle": 1500, "yaw": 1000, "system_time": 1778233611.162404}
{"type": "attitude", "roll": 0.0, "pitch": 0.2, "yaw": 8, "system_time": 1778233611.971078}
{"type": "attitude", "roll": 0.0, "pitch": 0.2, "yaw": 8, "system_time": 1778233612.173868}
{"type": "analog", "vbat": 23.5, "current": 0.0, "system_time": 1778233612.324331}
{"type": "attitude", "roll": 0.0, "pitch": 0.2, "yaw": 8, "system_time": 1778233612.685123}
{"type": "attitude", "roll": 0.0, "pitch": 0.2, "yaw": 8, "system_time": 1778233612.876014}
{"type": "rc", "roll": 1500, "pitch": 1500, "throttle": 1500, "yaw": 1598, "system_time": 1778233612.8887239}
{"type": "attitude", "roll": 0.0, "pitch": 0.2, "yaw": 8, "system_time": 1778233614.4946501}
{"type": "rc", "roll": 1500, "pitch": 1500, "throttle": 1500, "yaw": 1599, "system_time": 1778233614.508729}
{"type": "attitude", "roll": 0.0, "pitch": 0.2, "yaw": 8, "system_time": 1778233614.7062569}
{"type": "rc", "roll": 1500, "pitch": 1500, "throttle": 1500, "yaw": 1599, "system_time": 1778233614.718355}
{"type": "attitude", "roll": 0.0, "pitch": 0.2, "yaw": 8, "system_time": 1778233614.9994218}
{"type": "rc", "roll": 1500, "pitch": 1500, "throttle": 1500, "yaw": 1599, "system_time": 1778233615.0123708}
{"type": "attitude", "roll": 0.0, "pitch": 0.2, "yaw": 8, "system_time": 1778233615.313967}
{"type": "attitude", "roll": 0.0, "pitch": 0.2, "yaw": 8, "system_time": 1778233615.416895}
{"type": "rc", "roll": 1500, "pitch": 1500, "throttle": 1500, "yaw": 1599, "system_time": 1778233615.429385}
{"type": "attitude", "roll": 0.0, "pitch": 0.2, "yaw": 8, "system_time": 1778233615.5072541}
{"type": "rc", "roll": 1500, "pitch": 1500, "throttle": 1500, "yaw": 1599, "system_time": 1778233615.528492}
{"type": "attitude", "roll": 0.0, "pitch": 0.2, "yaw": 8, "system_time": 1778233615.831212}
{"type": "attitude", "roll": 0.0, "pitch": 0.2, "yaw": 8, "system_time": 1778233617.538191}
{"type": "attitude", "roll": 0.0, "pitch": 0.2, "yaw": 8, "system_time": 1778233617.6527832}
{"type": "attitude", "roll": 0.0, "pitch": 0.2, "yaw": 8, "system_time": 1778233617.742142}
{"type": "rc", "roll": 1500, "pitch": 1500, "throttle": 1500, "yaw": 1599, "system_time": 1778233617.7552881}
{"type": "attitude", "roll": 0.0, "pitch": 0.2, "yaw": 8, "system_time": 1778233617.853259}
{"type": "analog", "vbat": 23.5, "current": 0.06, "system_time": 1778233618.841311}
{"type": "attitude", "roll": 0.0, "pitch": 0.2, "yaw": 8, "system_time": 1778233619.6799018}
{"type": "attitude", "roll": 0.0, "pitch": 0.2, "yaw": 8, "system_time": 1778233619.783165}
{"type": "attitude", "roll": 0.0, "pitch": 0.2, "yaw": 8, "system_time": 1778233619.9779541}
{"type": "attitude", "roll": 0.0, "pitch": 0.2, "yaw": 8, "system_time": 1778233620.183635}
{"type": "attitude", "roll": 0.0, "pitch": 0.2, "yaw": 8, "system_time": 1778233620.3747609}
{"type": "rc", "roll": 1500, "pitch": 1500, "throttle": 1500, "yaw": 1599, "system_time": 1778233620.3908548}
{"type": "attitude", "roll": 0.0, "pitch": 0.2, "yaw": 8, "system_time": 1778233620.591786}
{"type": "attitude", "roll": 0.0, "pitch": 0.2, "yaw": 8, "system_time": 1778233621.608201}
{"type": "attitude", "roll": 0.0, "pitch": 0.2, "yaw": 8, "system_time": 1778233621.712975}
{"type": "attitude", "roll": 0.0, "pitch": 0.2, "yaw": 8, "system_time": 1778233622.50752}
{"type": "rc", "roll": 1500, "pitch": 1500, "throttle": 1500, "yaw": 1000, "system_time": 1778233622.5298429}
{"type": "analog", "vbat": 23.5, "current": 0.0, "system_time": 1778233622.860358}
{"type": "attitude", "roll": 0.0, "pitch": 0.2, "yaw": 8, "system_time": 1778233622.923543}
{"type": "analog", "vbat": 23.5, "current": 0.0, "system_time": 1778233623.869774}
{"type": "attitude", "roll": 0.0, "pitch": 0.2, "yaw": 8, "system_time": 1778233624.147486}
{"type": "attitude", "roll": 0.1, "pitch": 0.2, "yaw": 8, "system_time": 1778233625.168522}
{"type": "analog", "vbat": 23.5, "current": 0.2, "system_time": 1778233626.3926542}
{"type": "attitude", "roll": 0.2, "pitch": 0.0, "yaw": 8, "system_time": 1778233626.488131}
{"type": "attitude", "roll": 0.2, "pitch": 0.0, "yaw": 8, "system_time": 1778233627.186859}
{"type": "rc", "roll": 1500, "pitch": 1500, "throttle": 1500, "yaw": 1000, "system_time": 1778233627.198983}
{"type": "attitude", "roll": 0.1, "pitch": 0.1, "yaw": 8, "system_time": 1778233627.499518}
{"type": "analog", "vbat": 23.6, "current": 0.0, "system_time": 1778233627.8754182}
{"type": "attitude", "roll": 0.0, "pitch": 0.1, "yaw": 9, "system_time": 1778233627.904764}
{"type": "rc", "roll": 1500, "pitch": 1500, "throttle": 1500, "yaw": 1000, "system_time": 1778233627.917996}
{"type": "attitude", "roll": -0.1, "pitch": 0.1, "yaw": 12, "system_time": 1778233629.130477}
{"type": "attitude", "roll": -0.1, "pitch": 0.2, "yaw": 12, "system_time": 1778233630.964594}
{"type": "analog", "vbat": 23.5, "current": 0.0, "system_time": 1778233631.4011588}
{"type": "attitude", "roll": 0.0, "pitch": 0.2, "yaw": 12, "system_time": 1778233631.671974}
{"type": "rc", "roll": 1500, "pitch": 1500, "throttle": 1500, "yaw": 1000, "system_time": 1778233631.684486}
{"type": "attitude", "roll": 0.0, "pitch": 0.2, "yaw": 12, "system_time": 1778233633.606327}
{"type": "rc", "roll": 1500, "pitch": 1500, "throttle": 1500, "yaw": 1000, "system_time": 1778233633.618777}
{"type": "attitude", "roll": 0.0, "pitch": 0.2, "yaw": 12, "system_time": 1778233634.01141}
{"type": "rc", "roll": 1500, "pitch": 1500, "throttle": 1500, "yaw": 1000, "system_time": 1778233634.0245671}
{"type": "attitude", "roll": 0.4, "pitch": 0.2, "yaw": 12, "system_time": 1778233636.1591208}
{"type": "analog", "vbat": 23.5, "current": 0.0, "system_time": 1778233637.424465}
{"type": "attitude", "roll": 0.4, "pitch": 0.3, "yaw": 12, "system_time": 1778233637.777076}
{"type": "rc", "roll": 1500, "pitch": 1500, "throttle": 1500, "yaw": 1000, "system_time": 1778233637.790635}
{"type": "attitude", "roll": 0.6, "pitch": 0.3, "yaw": 12, "system_time": 1778233638.092319}
{"type": "attitude", "roll": 0.3, "pitch": 0.2, "yaw": 12, "system_time": 1778233638.993383}
{"type": "rc", "roll": 1500, "pitch": 1500, "throttle": 1500, "yaw": 1565, "system_time": 1778233639.006283}
{"type": "attitude", "roll": 0.0, "pitch": 0.2, "yaw": 12, "system_time": 1778233639.4225879}
{"type": "analog", "vbat": 23.6, "current": 0.0, "system_time": 1778233639.4520829}
{"type": "attitude", "roll": 0.0, "pitch": 0.2, "yaw": 12, "system_time": 1778233640.234279}
{"type": "attitude", "roll": 0.0, "pitch": 0.2, "yaw": 12, "system_time": 1778233640.742841}
{"type": "attitude", "roll": 0.0, "pitch": 0.2, "yaw": 12, "system_time": 1778233641.15102}
{"type": "attitude", "roll": 0.0, "pitch": 0.2, "yaw": 12, "system_time": 1778233641.543535}
{"type": "rc", "roll": 1500, "pitch": 1500, "throttle": 1500, "yaw": 1599, "system_time": 1778233641.55692}
{"type": "attitude", "roll": 0.0, "pitch": 0.2, "yaw": 12, "system_time": 1778233641.9494588}
{"type": "rc", "roll": 1500, "pitch": 1500, "throttle": 1500, "yaw": 1599, "system_time": 1778233641.9617448}
{"type": "attitude", "roll": 0.0, "pitch": 0.2, "yaw": 13, "system_time": 1778233642.660568}
{"type": "rc", "roll": 1500, "pitch": 1500, "throttle": 1500, "yaw": 1599, "system_time": 1778233642.672854}
{"type": "analog", "vbat": 23.5, "current": 0.0, "system_time": 1778233643.448417}
{"type": "attitude", "roll": -0.1, "pitch": 0.2, "yaw": 13, "system_time": 1778233643.489713}
{"type": "attitude", "roll": -0.1, "pitch": 0.2, "yaw": 13, "system_time": 1778233643.891092}
{"type": "attitude", "roll": -0.1, "pitch": 0.2, "yaw": 13, "system_time": 1778233644.202511}
{"type": "attitude", "roll": 0.0, "pitch": 0.2, "yaw": 13, "system_time": 1778233644.6087198}
{"type": "attitude", "roll": -0.1, "pitch": 0.2, "yaw": 13, "system_time": 1778233647.354882}
{"type": "analog", "vbat": 23.5, "current": 0.0, "system_time": 1778233648.998333}
{"type": "attitude", "roll": -0.1, "pitch": 0.2, "yaw": 13, "system_time": 1778233649.5893812}
{"type": "attitude", "roll": -0.1, "pitch": 0.2, "yaw": 13, "system_time": 1778233651.424306}
{"type": "attitude", "roll": -0.1, "pitch": 0.2, "yaw": 13, "system_time": 1778233652.042099}
{"type": "attitude", "roll": -0.1, "pitch": 0.2, "yaw": 13, "system_time": 1778233653.2563572}
{"type": "attitude", "roll": -0.1, "pitch": 0.2, "yaw": 13, "system_time": 1778233653.873844}
{"type": "attitude", "roll": -0.1, "pitch": 0.2, "yaw": 13, "system_time": 1778233655.7063339}
{"type": "attitude", "roll": -0.1, "pitch": 0.2, "yaw": 13, "system_time": 1778233656.72128}
{"type": "attitude", "roll": -0.1, "pitch": 0.2, "yaw": 13, "system_time": 1778233658.039248}
{"type": "rc", "roll": 1500, "pitch": 1500, "throttle": 1500, "yaw": 1000, "system_time": 1778233658.050899}
{"type": "attitude", "roll": -0.1, "pitch": 0.2, "yaw": 13, "system_time": 1778233658.351456}
{"type": "analog", "vbat": 23.4, "current": 0.0, "system_time": 1778233658.5247092}
{"type": "attitude", "roll": -0.1, "pitch": 0.2, "yaw": 13, "system_time": 1778233658.7446358}
{"type": "rc", "roll": 1500, "pitch": 1500, "throttle": 1500, "yaw": 1000, "system_time": 1778233658.757728}
{"type": "attitude", "roll": -0.1, "pitch": 0.2, "yaw": 13, "system_time": 1778233659.049011}
{"type": "rc", "roll": 1500, "pitch": 1500, "throttle": 1500, "yaw": 1000, "system_time": 1778233659.0613189}
{"type": "attitude", "roll": -0.1, "pitch": 0.2, "yaw": 13, "system_time": 1778233659.364526}
{"type": "attitude", "roll": -0.1, "pitch": 0.2, "yaw": 13, "system_time": 1778233659.668229}
{"type": "attitude", "roll": -0.1, "pitch": 0.2, "yaw": 13, "system_time": 1778233660.891865}
{"type": "attitude", "roll": -0.1, "pitch": 0.2, "yaw": 13, "system_time": 1778233662.1167092}
{"type": "analog", "vbat": 23.5, "current": 0.0, "system_time": 1778233662.542225}
{"type": "analog", "vbat": 23.5, "current": 0.0, "system_time": 1778233663.0606358}
{"type": "attitude", "roll": -0.1, "pitch": 0.2, "yaw": 13, "system_time": 1778233663.118983}
{"type": "rc", "roll": 1500, "pitch": 1500, "throttle": 1500, "yaw": 1000, "system_time": 1778233663.134838}
{"type": "attitude", "roll": -0.1, "pitch": 0.2, "yaw": 13, "system_time": 1778233663.219363}
{"type": "rc", "roll": 1500, "pitch": 1500, "throttle": 1500, "yaw": 1000, "system_time": 1778233663.234814}
{"type": "analog", "vbat": 23.5, "current": 0.0, "system_time": 1778233664.547889}
{"type": "attitude", "roll": -0.1, "pitch": 0.2, "yaw": 13, "system_time": 1778233664.8630059}
{"type": "attitude", "roll": -0.1, "pitch": 0.2, "yaw": 13, "system_time": 1778233665.873476}
{"type": "rc", "roll": 1500, "pitch": 1500, "throttle": 1500, "yaw": 1000, "system_time": 1778233665.886323}
{"type": "attitude", "roll": -0.1, "pitch": 0.2, "yaw": 13, "system_time": 1778233665.975081}
{"type": "rc", "roll": 1500, "pitch": 1500, "throttle": 1500, "yaw": 1000, "system_time": 1778233665.989707}
{"type": "attitude", "roll": -0.1, "pitch": 0.2, "yaw": 13, "system_time": 1778233666.288618}
{"type": "analog", "vbat": 23.5, "current": 0.0, "system_time": 1778233666.573024}
{"type": "attitude", "roll": -0.1, "pitch": 0.2, "yaw": 13, "system_time": 1778233667.818259}
{"type": "attitude", "roll": -0.1, "pitch": 0.2, "yaw": 13, "system_time": 1778233667.910583}
{"type": "rc", "roll": 1500, "pitch": 1500, "throttle": 1500, "yaw": 1000, "system_time": 1778233667.923627}
{"type": "attitude", "roll": -0.1, "pitch": 0.2, "yaw": 13, "system_time": 1778233668.212458}
{"type": "rc", "roll": 1500, "pitch": 1500, "throttle": 1500, "yaw": 1000, "system_time": 1778233668.2266161}
{"type": "attitude", "roll": -0.1, "pitch": 0.2, "yaw": 13, "system_time": 1778233668.517984}
{"type": "rc", "roll": 1500, "pitch": 1500, "throttle": 1500, "yaw": 1000, "system_time": 1778233668.5303638}
{"type": "attitude", "roll": -0.1, "pitch": 0.2, "yaw": 13, "system_time": 1778233668.831019}
{"type": "analog", "vbat": 23.5, "current": 0.0, "system_time": 1778233669.065147}
{"type": "attitude", "roll": -0.1, "pitch": 0.2, "yaw": 13, "system_time": 1778233669.439649}
{"type": "attitude", "roll": -0.1, "pitch": 0.2, "yaw": 13, "system_time": 1778233670.361274}
{"type": "attitude", "roll": -0.1, "pitch": 0.2, "yaw": 13, "system_time": 1778233672.2957382}
{"type": "attitude", "roll": -0.1, "pitch": 0.2, "yaw": 13, "system_time": 1778233672.597986}
{"type": "attitude", "roll": -0.1, "pitch": 0.2, "yaw": 13, "system_time": 1778233673.296063}
{"type": "rc", "roll": 1500, "pitch": 1500, "throttle": 1500, "yaw": 1000, "system_time": 1778233673.3091478}
{"type": "attitude", "roll": -0.1, "pitch": 0.2, "yaw": 13, "system_time": 1778233673.60991}
{"type": "analog", "vbat": 23.5, "current": 0.0, "system_time": 1778233675.596388}
{"type": "attitude", "roll": -0.1, "pitch": 0.2, "yaw": 13, "system_time": 1778233677.277038}
{"type": "attitude", "roll": -0.1, "pitch": 0.2, "yaw": 13, "system_time": 1778233677.884289}
{"type": "attitude", "roll": -0.1, "pitch": 0.2, "yaw": 13, "system_time": 1778233678.805701}
{"type": "attitude", "roll": -0.1, "pitch": 0.2, "yaw": 13, "system_time": 1778233679.202664}
{"type": "rc", "roll": 1500, "pitch": 1500, "throttle": 1500, "yaw": 1000, "system_time": 1778233679.215366}
{"type": "attitude", "roll": -0.1, "pitch": 0.2, "yaw": 13, "system_time": 1778233679.5157151}
{"type": "analog", "vbat": 23.6, "current": 0.06, "system_time": 1778233679.626883}
{"type": "attitude", "roll": -0.1, "pitch": 0.2, "yaw": 13, "system_time": 1778233679.915675}
{"type": "rc", "roll": 1500, "pitch": 1500, "throttle": 1500, "yaw": 1000, "system_time": 1778233679.921758}
{"type": "attitude", "roll": -0.1, "pitch": 0.2, "yaw": 13, "system_time": 1778233680.021205}
{"type": "rc", "roll": 1500, "pitch": 1500, "throttle": 1500, "yaw": 1000, "system_time": 1778233680.033474}
{"type": "attitude", "roll": -0.1, "pitch": 0.2, "yaw": 13, "system_time": 1778233681.04202}
{"type": "rc", "roll": 1500, "pitch": 1500, "throttle": 1500, "yaw": 1000, "system_time": 1778233681.05322}
{"type": "attitude", "roll": -0.1, "pitch": 0.2, "yaw": 13, "system_time": 1778233683.179907}
{"type": "attitude", "roll": -0.1, "pitch": 0.2, "yaw": 14, "system_time": 1778233684.102348}
{"type": "attitude", "roll": -0.1, "pitch": 0.2, "yaw": 14, "system_time": 1778233684.407292}
{"type": "analog", "vbat": 23.6, "current": 0.0, "system_time": 1778233684.6385632}
{"type": "attitude", "roll": -0.1, "pitch": 0.2, "yaw": 14, "system_time": 1778233685.104612}
{"type": "rc", "roll": 1500, "pitch": 1500, "throttle": 1500, "yaw": 1000, "system_time": 1778233685.116835}
{"type": "attitude", "roll": -0.1, "pitch": 0.2, "yaw": 14, "system_time": 1778233685.409102}
{"type": "rc", "roll": 1500, "pitch": 1500, "throttle": 1500, "yaw": 1000, "system_time": 1778233685.4216168}
{"type": "attitude", "roll": -0.1, "pitch": 0.2, "yaw": 14, "system_time": 1778233687.0383549}
{"type": "rc", "roll": 1500, "pitch": 1500, "throttle": 1500, "yaw": 1000, "system_time": 1778233687.051958}
{"type": "analog", "vbat": 23.5, "current": 0.0, "system_time": 1778233687.16011}
{"type": "attitude", "roll": -0.1, "pitch": 0.2, "yaw": 14, "system_time": 1778233688.059419}
{"type": "rc", "roll": 1500, "pitch": 1500, "throttle": 1500, "yaw": 1000, "system_time": 1778233688.074837}
{"type": "analog", "vbat": 23.5, "current": 0.0, "system_time": 1778233689.1661708}
{"type": "attitude", "roll": -0.1, "pitch": 0.2, "yaw": 14, "system_time": 1778233689.376222}
{"type": "rc", "roll": 1500, "pitch": 1500, "throttle": 1500, "yaw": 1000, "system_time": 1778233689.3912058}
{"type": "attitude", "roll": -0.1, "pitch": 0.2, "yaw": 14, "system_time": 1778233689.690513}
{"type": "attitude", "roll": -0.1, "pitch": 0.2, "yaw": 14, "system_time": 1778233691.5245922}
{"type": "analog", "vbat": 23.5, "current": 0.0, "system_time": 1778233692.1735098}
{"type": "attitude", "roll": -0.1, "pitch": 0.2, "yaw": 14, "system_time": 1778233692.245161}
{"type": "attitude", "roll": -0.1, "pitch": 0.2, "yaw": 14, "system_time": 1778233692.850821}
{"type": "attitude", "roll": -0.1, "pitch": 0.2, "yaw": 14, "system_time": 1778233693.771393}
{"type": "attitude", "roll": -0.1, "pitch": 0.1, "yaw": 14, "system_time": 1778233694.776459}
{"type": "rc", "roll": 1500, "pitch": 1500, "throttle": 1500, "yaw": 1000, "system_time": 1778233694.789624}
{"type": "analog", "vbat": 23.5, "current": 0.0, "system_time": 1778233695.191073}
{"type": "attitude", "roll": -0.6, "pitch": 0.2, "yaw": 16, "system_time": 1778233695.787393}
{"type": "rc", "roll": 1500, "pitch": 1500, "throttle": 1500, "yaw": 1000, "system_time": 1778233695.8009548}
{"type": "attitude", "roll": 1.0, "pitch": 0.0, "yaw": 18, "system_time": 1778233696.112847}
{"type": "attitude", "roll": 1.0, "pitch": 0.0, "yaw": 19, "system_time": 1778233696.505913}
{"type": "rc", "roll": 1500, "pitch": 1500, "throttle": 1500, "yaw": 1000, "system_time": 1778233696.520905}
{"type": "attitude", "roll": 0.0, "pitch": 0.0, "yaw": 19, "system_time": 1778233696.909142}
{"type": "rc", "roll": 1500, "pitch": 1500, "throttle": 1500, "yaw": 1000, "system_time": 1778233696.9254}
{"type": "attitude", "roll": -0.1, "pitch": 0.1, "yaw": 19, "system_time": 1778233697.924169}
{"type": "rc", "roll": 1500, "pitch": 1500, "throttle": 1500, "yaw": 1000, "system_time": 1778233697.938955}
{"type": "attitude", "roll": -0.1, "pitch": 0.1, "yaw": 19, "system_time": 1778233698.442296}
{"type": "rc", "roll": 1500, "pitch": 1500, "throttle": 1500, "yaw": 1000, "system_time": 1778233698.454751}
{"type": "attitude", "roll": -0.1, "pitch": 0.1, "yaw": 19, "system_time": 1778233698.542932}
{"type": "rc", "roll": 1500, "pitch": 1500, "throttle": 1500, "yaw": 1000, "system_time": 1778233698.556088}
{"type": "attitude", "roll": -0.1, "pitch": 0.1, "yaw": 19, "system_time": 1778233699.756385}
{"type": "rc", "roll": 1500, "pitch": 1500, "throttle": 1500, "yaw": 1000, "system_time": 1778233699.768863}
{"type": "attitude", "roll": -0.1, "pitch": 0.1, "yaw": 19, "system_time": 1778233699.862292}
{"type": "rc", "roll": 1500, "pitch": 1500, "throttle": 1500, "yaw": 1000, "system_time": 1778233699.872952}
{"type": "attitude", "roll": -0.1, "pitch": 0.1, "yaw": 19, "system_time": 1778233699.9692721}
{"type": "attitude", "roll": -0.1, "pitch": 0.1, "yaw": 19, "system_time": 1778233700.05702}
{"type": "attitude", "roll": -0.1, "pitch": 0.1, "yaw": 19, "system_time": 1778233700.158942}
{"type": "rc", "roll": 1500, "pitch": 1500, "throttle": 1500, "yaw": 1000, "system_time": 1778233700.174953}
{"type": "attitude", "roll": -0.1, "pitch": 0.1, "yaw": 19, "system_time": 1778233700.267238}
{"type": "rc", "roll": 1500, "pitch": 1500, "throttle": 1500, "yaw": 1000, "system_time": 1778233700.275688}
{"type": "attitude", "roll": -0.1, "pitch": 0.1, "yaw": 19, "system_time": 1778233700.3635762}
{"type": "rc", "roll": 1500, "pitch": 1500, "throttle": 1500, "yaw": 1000, "system_time": 1778233700.376053}
{"type": "attitude", "roll": -0.1, "pitch": 0.1, "yaw": 19, "system_time": 1778233700.463238}
{"type": "rc", "roll": 1500, "pitch": 1500, "throttle": 1500, "yaw": 1000, "system_time": 1778233700.478532}
{"type": "analog", "vbat": 23.5, "current": 0.0, "system_time": 1778233701.2283552}
{"type": "attitude", "roll": -0.1, "pitch": 0.1, "yaw": 19, "system_time": 1778233702.089047}
{"type": "rc", "roll": 1500, "pitch": 1500, "throttle": 1500, "yaw": 1000, "system_time": 1778233702.100864}
{"type": "attitude", "roll": -0.1, "pitch": 0.1, "yaw": 19, "system_time": 1778233702.188886}
{"type": "rc", "roll": 1500, "pitch": 1500, "throttle": 1500, "yaw": 1000, "system_time": 1778233702.207554}
{"type": "analog", "vbat": 23.5, "current": 0.06, "system_time": 1778233702.210416}
{"type": "attitude", "roll": -0.1, "pitch": 0.1, "yaw": 19, "system_time": 1778233703.013076}
{"type": "attitude", "roll": -0.1, "pitch": 0.1, "yaw": 19, "system_time": 1778233703.118034}
{"type": "analog", "vbat": 23.5, "current": 0.06, "system_time": 1778233703.736025}
{"type": "attitude", "roll": 1.0, "pitch": -1.6, "yaw": 18, "system_time": 1778233704.414336}
{"type": "rc", "roll": 1500, "pitch": 1500, "throttle": 1500, "yaw": 1000, "system_time": 1778233704.427565}
{"type": "attitude", "roll": -10.3, "pitch": -3.3, "yaw": 22, "system_time": 1778233705.2269282}
{"type": "rc", "roll": 1500, "pitch": 1500, "throttle": 1500, "yaw": 1000, "system_time": 1778233705.240064}
{"type": "attitude", "roll": -4.3, "pitch": 3.4, "yaw": 21, "system_time": 1778233705.342155}
{"type": "attitude", "roll": 0.0, "pitch": -1.5, "yaw": 15, "system_time": 1778233706.2528589}
{"type": "analog", "vbat": 23.5, "current": 0.0, "system_time": 1778233707.247036}
{"type": "attitude", "roll": 0.0, "pitch": 0.0, "yaw": 16, "system_time": 1778233707.265481}
{"type": "attitude", "roll": 0.0, "pitch": 0.1, "yaw": 16, "system_time": 1778233707.4783978}
{"type": "attitude", "roll": 0.0, "pitch": 0.1, "yaw": 16, "system_time": 1778233707.574852}
{"type": "analog", "vbat": 23.5, "current": 0.0, "system_time": 1778233708.25141}
{"type": "attitude", "roll": 0.0, "pitch": 0.1, "yaw": 16, "system_time": 1778233708.99942}
{"type": "attitude", "roll": 0.0, "pitch": 0.1, "yaw": 16, "system_time": 1778233709.200541}
{"type": "attitude", "roll": 0.0, "pitch": 0.1, "yaw": 16, "system_time": 1778233709.2905111}
{"type": "attitude", "roll": 0.0, "pitch": 0.1, "yaw": 16, "system_time": 1778233709.3857012}
{"type": "rc", "roll": 1500, "pitch": 1500, "throttle": 1500, "yaw": 1000, "system_time": 1778233709.408225}
{"type": "attitude", "roll": 0.0, "pitch": 0.1, "yaw": 16, "system_time": 1778233709.509983}
{"type": "attitude", "roll": 0.0, "pitch": 0.1, "yaw": 16, "system_time": 1778233709.693377}
{"type": "rc", "roll": 1500, "pitch": 1500, "throttle": 1500, "yaw": 1000, "system_time": 1778233709.7085319}
{"type": "analog", "vbat": 23.6, "current": 0.06, "system_time": 1778233709.74733}
{"type": "attitude", "roll": 0.0, "pitch": 0.1, "yaw": 16, "system_time": 1778233709.912344}
{"type": "attitude", "roll": 0.0, "pitch": 0.1, "yaw": 16, "system_time": 1778233711.2300858}
{"type": "attitude", "roll": 0.0, "pitch": 0.1, "yaw": 16, "system_time": 1778233712.630935}
{"type": "rc", "roll": 1500, "pitch": 1500, "throttle": 1500, "yaw": 1000, "system_time": 1778233712.646323}
{"type": "attitude", "roll": 0.0, "pitch": 0.1, "yaw": 16, "system_time": 1778233713.260608}
{"type": "attitude", "roll": 0.0, "pitch": 0.1, "yaw": 16, "system_time": 1778233713.452034}
{"type": "rc", "roll": 1500, "pitch": 1500, "throttle": 1500, "yaw": 1000, "system_time": 1778233713.464931}
{"type": "analog", "vbat": 23.5, "current": 0.0, "system_time": 1778233715.764439}
{"type": "attitude", "roll": 0.0, "pitch": 0.1, "yaw": 16, "system_time": 1778233716.3874729}
{"type": "rc", "roll": 1500, "pitch": 1500, "throttle": 1500, "yaw": 1000, "system_time": 1778233716.40137}
{"type": "analog", "vbat": 23.5, "current": 0.13, "system_time": 1778233716.786068}
{"type": "attitude", "roll": 0.0, "pitch": 0.1, "yaw": 16, "system_time": 1778233717.499116}
{"type": "rc", "roll": 1500, "pitch": 1500, "throttle": 1500, "yaw": 1000, "system_time": 1778233717.51522}
{"type": "attitude", "roll": 0.0, "pitch": 0.1, "yaw": 16, "system_time": 1778233718.7169979}
{"type": "rc", "roll": 1500, "pitch": 1500, "throttle": 1500, "yaw": 1000, "system_time": 1778233718.729345}
{"type": "attitude", "roll": 0.0, "pitch": 0.1, "yaw": 16, "system_time": 1778233719.741009}
{"type": "attitude", "roll": 0.0, "pitch": 0.1, "yaw": 16, "system_time": 1778233720.030955}
{"type": "rc", "roll": 1500, "pitch": 1500, "throttle": 1500, "yaw": 1000, "system_time": 1778233720.043894}
{"type": "attitude", "roll": 0.0, "pitch": 0.1, "yaw": 16, "system_time": 1778233720.235928}
{"type": "rc", "roll": 1500, "pitch": 1500, "throttle": 1500, "yaw": 1000, "system_time": 1778233720.248867}
{"type": "analog", "vbat": 23.4, "current": 0.06, "system_time": 1778233720.287321}
{"type": "attitude", "roll": 0.0, "pitch": 0.1, "yaw": 16, "system_time": 1778233720.339647}
{"type": "attitude", "roll": 0.0, "pitch": 0.1, "yaw": 16, "system_time": 1778233720.442067}
{"type": "rc", "roll": 1500, "pitch": 1500, "throttle": 1500, "yaw": 1000, "system_time": 1778233720.4552362}
{"type": "attitude", "roll": 0.0, "pitch": 0.1, "yaw": 16, "system_time": 1778233720.744193}
{"type": "rc", "roll": 1500, "pitch": 1500, "throttle": 1500, "yaw": 1000, "system_time": 1778233720.757866}
{"type": "attitude", "roll": 0.0, "pitch": 0.1, "yaw": 16, "system_time": 1778233720.847449}
{"type": "rc", "roll": 1500, "pitch": 1500, "throttle": 1500, "yaw": 1000, "system_time": 1778233720.861341}
{"type": "attitude", "roll": 0.0, "pitch": 0.1, "yaw": 16, "system_time": 1778233722.566412}
{"type": "rc", "roll": 1500, "pitch": 1500, "throttle": 1500, "yaw": 1000, "system_time": 1778233722.579517}
{"type": "attitude", "roll": 0.0, "pitch": 0.1, "yaw": 16, "system_time": 1778233722.66731}
{"type": "rc", "roll": 1500, "pitch": 1500, "throttle": 1500, "yaw": 1000, "system_time": 1778233722.6826508}
{"type": "attitude", "roll": 0.0, "pitch": 0.1, "yaw": 16, "system_time": 1778233722.762186}
{"type": "rc", "roll": 1500, "pitch": 1500, "throttle": 1500, "yaw": 1000, "system_time": 1778233722.7753441}
{"type": "attitude", "roll": 0.0, "pitch": 0.1, "yaw": 16, "system_time": 1778233724.492759}
{"type": "rc", "roll": 1500, "pitch": 1500, "throttle": 1500, "yaw": 1000, "system_time": 1778233724.505059}
{"type": "attitude", "roll": 0.0, "pitch": 0.1, "yaw": 16, "system_time": 1778233724.698049}
{"type": "rc", "roll": 1500, "pitch": 1500, "throttle": 1500, "yaw": 1000, "system_time": 1778233724.709313}
{"type": "analog", "vbat": 23.4, "current": 0.13, "system_time": 1778233724.8177369}
{"type": "attitude", "roll": 0.0, "pitch": 0.1, "yaw": 16, "system_time": 1778233725.811187}
{"type": "rc", "roll": 1500, "pitch": 1500, "throttle": 1500, "yaw": 1000, "system_time": 1778233725.824511}
{"type": "attitude", "roll": 0.0, "pitch": 0.1, "yaw": 16, "system_time": 1778233725.914695}
{"type": "rc", "roll": 1500, "pitch": 1500, "throttle": 1500, "yaw": 1000, "system_time": 1778233725.927784}
{"type": "analog", "vbat": 23.5, "current": 0.13, "system_time": 1778233726.80838}
{"type": "attitude", "roll": 0.0, "pitch": 0.1, "yaw": 16, "system_time": 1778233727.34477}
{"type": "attitude", "roll": 0.0, "pitch": 0.1, "yaw": 16, "system_time": 1778233728.261111}
{"type": "attitude", "roll": 0.0, "pitch": 0.1, "yaw": 16, "system_time": 1778233728.3636968}
{"type": "attitude", "roll": 0.0, "pitch": 0.1, "yaw": 16, "system_time": 1778233728.4539971}
{"type": "attitude", "roll": 0.0, "pitch": 0.1, "yaw": 16, "system_time": 1778233729.360152}
{"type": "rc", "roll": 1500, "pitch": 1500, "throttle": 1500, "yaw": 1000, "system_time": 1778233729.3755789}
{"type": "analog", "vbat": 23.5, "current": 0.0, "system_time": 1778233730.828985}
{"type": "attitude", "roll": 0.0, "pitch": 0.1, "yaw": 16, "system_time": 1778233731.3999512}
{"type": "attitude", "roll": 0.0, "pitch": 0.1, "yaw": 17, "system_time": 1778233732.5208352}
{"type": "attitude", "roll": 0.0, "pitch": 0.1, "yaw": 17, "system_time": 1778233732.618898}
{"type": "rc", "roll": 1500, "pitch": 1500, "throttle": 1500, "yaw": 1000, "system_time": 1778233732.629314}
{"type": "attitude", "roll": 0.0, "pitch": 0.1, "yaw": 17, "system_time": 1778233732.7192461}
{"type": "rc", "roll": 1500, "pitch": 1500, "throttle": 1500, "yaw": 1000, "system_time": 1778233732.7322938}
{"type": "attitude", "roll": 0.0, "pitch": 0.1, "yaw": 17, "system_time": 1778233732.827648}
{"type": "rc", "roll": 1500, "pitch": 1500, "throttle": 1500, "yaw": 1000, "system_time": 1778233732.830909}
{"type": "attitude", "roll": 0.0, "pitch": 0.1, "yaw": 17, "system_time": 1778233733.735978}
{"type": "attitude", "roll": 0.0, "pitch": 0.1, "yaw": 17, "system_time": 1778233734.052226}
{"type": "attitude", "roll": 0.0, "pitch": 0.1, "yaw": 17, "system_time": 1778233734.6593852}
{"type": "attitude", "roll": 0.0, "pitch": 0.1, "yaw": 17, "system_time": 1778233734.946916}
{"type": "rc", "roll": 1500, "pitch": 1500, "throttle": 1500, "yaw": 1000, "system_time": 1778233734.96556}
{"type": "attitude", "roll": 0.0, "pitch": 0.1, "yaw": 17, "system_time": 1778233735.148127}
{"type": "rc", "roll": 1500, "pitch": 1500, "throttle": 1500, "yaw": 1000, "system_time": 1778233735.161354}
{"type": "attitude", "roll": 0.0, "pitch": 0.1, "yaw": 17, "system_time": 1778233736.482572}
{"type": "attitude", "roll": 0.0, "pitch": 0.1, "yaw": 17, "system_time": 1778233736.779077}
{"type": "rc", "roll": 1500, "pitch": 1500, "throttle": 1500, "yaw": 1000, "system_time": 1778233736.788863}
{"type": "attitude", "roll": 0.0, "pitch": 0.1, "yaw": 17, "system_time": 1778233736.8765938}
{"type": "rc", "roll": 1500, "pitch": 1500, "throttle": 1500, "yaw": 1000, "system_time": 1778233736.888926}
{"type": "attitude", "roll": 0.0, "pitch": 0.1, "yaw": 17, "system_time": 1778233738.913462}
{"type": "attitude", "roll": 0.0, "pitch": 0.1, "yaw": 17, "system_time": 1778233739.0153332}
{"type": "analog", "vbat": 23.5, "current": 0.06, "system_time": 1778233740.377933}
{"type": "attitude", "roll": 0.0, "pitch": 0.1, "yaw": 17, "system_time": 1778233741.136876}
{"type": "rc", "roll": 1500, "pitch": 1500, "throttle": 1500, "yaw": 1000, "system_time": 1778233741.152151}
{"type": "attitude", "roll": 0.0, "pitch": 0.1, "yaw": 17, "system_time": 1778233741.4421492}
{"type": "rc", "roll": 1500, "pitch": 1500, "throttle": 1500, "yaw": 1000, "system_time": 1778233741.458687}
{"type": "attitude", "roll": 0.0, "pitch": 0.1, "yaw": 17, "system_time": 1778233742.669597}
{"type": "attitude", "roll": 0.0, "pitch": 0.1, "yaw": 17, "system_time": 1778233742.963995}
{"type": "rc", "roll": 1500, "pitch": 1500, "throttle": 1500, "yaw": 1000, "system_time": 1778233742.9774258}
{"type": "analog", "vbat": 23.5, "current": 0.06, "system_time": 1778233744.885708}
{"type": "attitude", "roll": 0.0, "pitch": 0.1, "yaw": 17, "system_time": 1778233745.599465}
{"type": "rc", "roll": 1500, "pitch": 1500, "throttle": 1500, "yaw": 1000, "system_time": 1778233745.615078}
{"type": "attitude", "roll": 0.0, "pitch": 0.1, "yaw": 17, "system_time": 1778233745.813647}
{"type": "attitude", "roll": 0.0, "pitch": 0.1, "yaw": 17, "system_time": 1778233748.032879}
{"type": "rc", "roll": 1500, "pitch": 1500, "throttle": 1500, "yaw": 1000, "system_time": 1778233748.0468018}
{"type": "attitude", "roll": 0.0, "pitch": 0.1, "yaw": 17, "system_time": 1778233749.2574852}
{"type": "attitude", "roll": 0.0, "pitch": 0.1, "yaw": 17, "system_time": 1778233749.359276}
{"type": "attitude", "roll": 0.0, "pitch": 0.1, "yaw": 17, "system_time": 1778233749.448894}
{"type": "rc", "roll": 1500, "pitch": 1500, "throttle": 1500, "yaw": 1000, "system_time": 1778233749.46221}
{"type": "attitude", "roll": 0.0, "pitch": 0.1, "yaw": 17, "system_time": 1778233751.172448}
{"type": "rc", "roll": 1500, "pitch": 1500, "throttle": 1500, "yaw": 1000, "system_time": 1778233751.187455}
{"type": "attitude", "roll": 0.0, "pitch": 0.1, "yaw": 17, "system_time": 1778233752.288926}
{"type": "attitude", "roll": 0.0, "pitch": 0.1, "yaw": 17, "system_time": 1778233752.4092422}
{"type": "attitude", "roll": 0.0, "pitch": 0.1, "yaw": 17, "system_time": 1778233752.4993448}
{"type": "attitude", "roll": 0.0, "pitch": 0.1, "yaw": 17, "system_time": 1778233752.809518}
{"type": "attitude", "roll": 0.0, "pitch": 0.1, "yaw": 17, "system_time": 1778233753.104185}
{"type": "attitude", "roll": 0.0, "pitch": 0.1, "yaw": 17, "system_time": 1778233753.4172869}
{"type": "attitude", "roll": 0.0, "pitch": 0.1, "yaw": 17, "system_time": 1778233753.61059}
{"type": "rc", "roll": 1500, "pitch": 1500, "throttle": 1500, "yaw": 1000, "system_time": 1778233753.6260438}
{"type": "attitude", "roll": 0.0, "pitch": 0.1, "yaw": 17, "system_time": 1778233753.710634}
{"type": "rc", "roll": 1500, "pitch": 1500, "throttle": 1500, "yaw": 1000, "system_time": 1778233753.7231119}
{"type": "attitude", "roll": 0.0, "pitch": 0.0, "yaw": 17, "system_time": 1778233754.9472609}
{"type": "attitude", "roll": -0.1, "pitch": 0.1, "yaw": 17, "system_time": 1778233755.0416708}
{"type": "rc", "roll": 1500, "pitch": 1500, "throttle": 1500, "yaw": 1000, "system_time": 1778233755.0548868}
{"type": "attitude", "roll": -0.5, "pitch": -0.1, "yaw": 17, "system_time": 1778233755.240662}
{"type": "rc", "roll": 1500, "pitch": 1500, "throttle": 1500, "yaw": 1000, "system_time": 1778233755.256685}
{"type": "attitude", "roll": -0.1, "pitch": 0.1, "yaw": 18, "system_time": 1778233755.448116}
{"type": "rc", "roll": 1500, "pitch": 1500, "throttle": 1500, "yaw": 1000, "system_time": 1778233755.461523}
{"type": "attitude", "roll": 0.0, "pitch": 0.0, "yaw": 17, "system_time": 1778233755.739599}
{"type": "rc", "roll": 1500, "pitch": 1500, "throttle": 1500, "yaw": 1000, "system_time": 1778233755.755015}
{"type": "attitude", "roll": 0.0, "pitch": 0.1, "yaw": 18, "system_time": 1778233755.849292}
{"type": "rc", "roll": 1500, "pitch": 1500, "throttle": 1500, "yaw": 1000, "system_time": 1778233755.861588}
{"type": "analog", "vbat": 23.5, "current": 0.06, "system_time": 1778233756.4333901}
{"type": "attitude", "roll": 0.1, "pitch": 0.1, "yaw": 17, "system_time": 1778233756.9746282}
{"type": "attitude", "roll": -0.5, "pitch": -0.1, "yaw": 22, "system_time": 1778233758.5035598}
{"type": "analog", "vbat": 23.5, "current": 0.0, "system_time": 1778233758.929207}
{"type": "attitude", "roll": -0.5, "pitch": -0.1, "yaw": 22, "system_time": 1778233759.203983}
{"type": "rc", "roll": 1500, "pitch": 1500, "throttle": 1500, "yaw": 1000, "system_time": 1778233759.215947}
{"type": "attitude", "roll": -0.5, "pitch": -0.1, "yaw": 22, "system_time": 1778233759.516425}
{"type": "attitude", "roll": -0.5, "pitch": 0.0, "yaw": 22, "system_time": 1778233761.1429791}
{"type": "rc", "roll": 1500, "pitch": 1500, "throttle": 1500, "yaw": 1000, "system_time": 1778233761.150068}
{"type": "attitude", "roll": -0.5, "pitch": 0.0, "yaw": 22, "system_time": 1778233761.448926}
{"type": "attitude", "roll": -0.4, "pitch": -0.1, "yaw": 22, "system_time": 1778233763.069569}
{"type": "rc", "roll": 1500, "pitch": 1500, "throttle": 1500, "yaw": 1000, "system_time": 1778233763.086755}
{"type": "attitude", "roll": -0.4, "pitch": 0.0, "yaw": 22, "system_time": 1778233763.6883788}
{"type": "analog", "vbat": 23.5, "current": 0.0, "system_time": 1778233763.9655921}
{"type": "attitude", "roll": -0.4, "pitch": -0.1, "yaw": 22, "system_time": 1778233764.0829382}
{"type": "rc", "roll": 1500, "pitch": 1500, "throttle": 1500, "yaw": 1000, "system_time": 1778233764.0955331}
{"type": "attitude", "roll": -0.4, "pitch": -0.1, "yaw": 22, "system_time": 1778233764.406157}
{"type": "attitude", "roll": -0.4, "pitch": 0.0, "yaw": 22, "system_time": 1778233765.0146382}
{"type": "analog", "vbat": 23.5, "current": 0.0, "system_time": 1778233766.9692879}
{"type": "analog", "vbat": 23.5, "current": 0.0, "system_time": 1778233767.476733}
{"type": "attitude", "roll": -0.4, "pitch": -0.1, "yaw": 22, "system_time": 1778233767.5551722}
{"type": "rc", "roll": 1500, "pitch": 1500, "throttle": 1500, "yaw": 1000, "system_time": 1778233767.567463}
{"type": "attitude", "roll": -0.4, "pitch": -0.1, "yaw": 22, "system_time": 1778233767.8596008}
{"type": "attitude", "roll": -0.4, "pitch": -0.1, "yaw": 22, "system_time": 1778233768.17332}
{"type": "attitude", "roll": -0.4, "pitch": 0.0, "yaw": 22, "system_time": 1778233768.569576}
{"type": "rc", "roll": 1500, "pitch": 1500, "throttle": 1500, "yaw": 1000, "system_time": 1778233768.580544}
{"type": "analog", "vbat": 23.5, "current": 0.0, "system_time": 1778233768.9742432}
{"type": "attitude", "roll": -0.4, "pitch": -0.1, "yaw": 22, "system_time": 1778233769.580278}
{"type": "rc", "roll": 1500, "pitch": 1500, "throttle": 1500, "yaw": 1000, "system_time": 1778233769.595572}
{"type": "attitude", "roll": -0.4, "pitch": 0.0, "yaw": 22, "system_time": 1778233769.895839}
{"type": "attitude", "roll": -0.4, "pitch": 0.0, "yaw": 22, "system_time": 1778233772.032943}
{"type": "analog", "vbat": 23.5, "current": 0.0, "system_time": 1778233772.493591}
{"type": "attitude", "roll": -0.4, "pitch": 0.0, "yaw": 22, "system_time": 1778233772.740007}
{"type": "rc", "roll": 1500, "pitch": 1500, "throttle": 1500, "yaw": 1000, "system_time": 1778233772.753362}
{"type": "attitude", "roll": -0.4, "pitch": -0.1, "yaw": 22, "system_time": 1778233773.9662662}
{"type": "analog", "vbat": 23.5, "current": 0.0, "system_time": 1778233775.0094762}
{"type": "analog", "vbat": 23.5, "current": 0.0, "system_time": 1778233775.5163789}
{"type": "attitude", "roll": -0.4, "pitch": 0.0, "yaw": 22, "system_time": 1778233775.5959208}
{"type": "attitude", "roll": -0.4, "pitch": -0.1, "yaw": 22, "system_time": 1778233776.212947}
{"type": "attitude", "roll": -0.4, "pitch": 0.0, "yaw": 22, "system_time": 1778233777.215455}
{"type": "rc", "roll": 1500, "pitch": 1500, "throttle": 1500, "yaw": 1000, "system_time": 1778233777.229054}
{"type": "attitude", "roll": -0.4, "pitch": 0.0, "yaw": 22, "system_time": 1778233778.450952}
{"type": "analog", "vbat": 23.5, "current": 0.0, "system_time": 1778233779.0094259}
{"type": "analog", "vbat": 23.5, "current": 0.0, "system_time": 1778233779.515489}
{"type": "attitude", "roll": -0.4, "pitch": 0.0, "yaw": 22, "system_time": 1778233779.7585049}
