{"type": "rc", "roll": 1401, "pitch": 1401, "throttle": 1401, "yaw": 885, "system_time": 1778475446.041876}
{"type": "attitude", "roll": 1.1, "pitch": 0.3, "yaw": 0, "system_time": 1778475446.042172}
{"type": "rc", "roll": 1401, "pitch": 1401, "throttle": 1401, "yaw": 885, "system_time": 1778475446.042309}
{"type": "attitude", "roll": 1.1, "pitch": 0.3, "yaw": 0, "system_time": 1778475446.042376}
{"type": "rc", "roll": 1401, "pitch": 1401, "throttle": 1401, "yaw": 885, "system_time": 1778475446.0424268}
{"type": "attitude", "roll": 1.1, "pitch": 0.3, "yaw": 0, "system_time": 1778475446.112711}
{"type": "rc", "roll": 1401, "pitch": 1401, "throttle": 1401, "yaw": 885, "system_time": 1778475446.12594}
{"type": "attitude", "roll": 1.1, "pitch": 0.4, "yaw": 0, "system_time": 1778475447.4517791}
{"type": "attitude", "roll": 1.1, "pitch": 0.4, "yaw": 0, "system_time": 1778475447.54214}
{"type": "rc", "roll": 1500, "pitch": 1500, "throttle": 1500, "yaw": 1000, "system_time": 1778475447.558314}
{"type": "attitude", "roll": 1.1, "pitch": 0.4, "yaw": 0, "system_time": 1778475447.6550741}
{"type": "attitude", "roll": 1.1, "pitch": 0.4, "yaw": 0, "system_time": 1778475447.747541}
{"type": "rc", "roll": 1500, "pitch": 1500, "throttle": 1500, "yaw": 1000, "system_time": 1778475447.7605069}
{"type": "attitude", "roll": 1.1, "pitch": 0.4, "yaw": 1, "system_time": 1778475448.5744598}
{"type": "attitude", "roll": 1.1, "pitch": 0.4, "yaw": 1, "system_time": 1778475448.9766998}
{"type": "attitude", "roll": 1.1, "pitch": 0.4, "yaw": 1, "system_time": 1778475449.180589}
{"type": "attitude", "roll": 1.1, "pitch": 0.4, "yaw": 1, "system_time": 1778475449.274542}
{"type": "rc", "roll": 1500, "pitch": 1500, "throttle": 1500, "yaw": 1534, "system_time": 1778475449.287502}
{"type": "attitude", "roll": 1.1, "pitch": 0.4, "yaw": 1, "system_time": 1778475449.879801}
{"type": "rc", "roll": 1500, "pitch": 1500, "throttle": 1500, "yaw": 1595, "system_time": 1778475449.896289}
{"type": "attitude", "roll": 1.1, "pitch": 0.4, "yaw": 1, "system_time": 1778475450.1979148}
{"type": "analog", "vbat": 23.1, "current": 0.06, "system_time": 1778475450.276628}
{"type": "attitude", "roll": 1.1, "pitch": 0.4, "yaw": 1, "system_time": 1778475450.2869241}
{"type": "rc", "roll": 1500, "pitch": 1500, "throttle": 1500, "yaw": 1599, "system_time": 1778475450.299304}
{"type": "attitude", "roll": 1.1, "pitch": 0.3, "yaw": 1, "system_time": 1778475450.502591}
{"type": "attitude", "roll": 1.1, "pitch": 0.4, "yaw": 1, "system_time": 1778475450.7065978}
{"type": "attitude", "roll": 1.1, "pitch": 0.4, "yaw": 1, "system_time": 1778475450.9997172}
{"type": "rc", "roll": 1500, "pitch": 1500, "throttle": 1500, "yaw": 1599, "system_time": 1778475451.0135481}
{"type": "attitude", "roll": 1.1, "pitch": 0.4, "yaw": 1, "system_time": 1778475451.305067}
{"type": "rc", "roll": 1500, "pitch": 1500, "throttle": 1500, "yaw": 1599, "system_time": 1778475451.31763}
{"type": "attitude", "roll": 1.1, "pitch": 0.4, "yaw": 1, "system_time": 1778475451.617204}
{"type": "attitude", "roll": 1.1, "pitch": 0.4, "yaw": 1, "system_time": 1778475451.731264}
{"type": "attitude", "roll": 1.1, "pitch": 0.4, "yaw": 1, "system_time": 1778475451.92182}
{"type": "rc", "roll": 1500, "pitch": 1500, "throttle": 1500, "yaw": 1599, "system_time": 1778475451.935199}
{"type": "attitude", "roll": 1.1, "pitch": 0.4, "yaw": 1, "system_time": 1778475452.115426}
{"type": "attitude", "roll": 1.1, "pitch": 0.3, "yaw": 1, "system_time": 1778475452.947307}
{"type": "attitude", "roll": 1.1, "pitch": 0.3, "yaw": 1, "system_time": 1778475453.022728}
{"type": "rc", "roll": 1500, "pitch": 1500, "throttle": 1500, "yaw": 1599, "system_time": 1778475453.048085}
{"type": "attitude", "roll": 1.1, "pitch": 0.3, "yaw": 1, "system_time": 1778475453.438717}
{"type": "rc", "roll": 1500, "pitch": 1500, "throttle": 1500, "yaw": 1599, "system_time": 1778475453.4522061}
{"type": "attitude", "roll": 1.1, "pitch": 0.3, "yaw": 1, "system_time": 1778475453.538673}
{"type": "rc", "roll": 1500, "pitch": 1500, "throttle": 1500, "yaw": 1599, "system_time": 1778475453.55265}
{"type": "attitude", "roll": 1.1, "pitch": 0.4, "yaw": 1, "system_time": 1778475453.750133}
{"type": "attitude", "roll": 1.1, "pitch": 0.4, "yaw": 1, "system_time": 1778475453.8409119}
{"type": "rc", "roll": 1500, "pitch": 1500, "throttle": 1500, "yaw": 1599, "system_time": 1778475453.8540878}
{"type": "attitude", "roll": 1.1, "pitch": 0.4, "yaw": 1, "system_time": 1778475454.146841}
{"type": "attitude", "roll": 1.1, "pitch": 0.4, "yaw": 1, "system_time": 1778475454.347821}
{"type": "rc", "roll": 1500, "pitch": 1500, "throttle": 1500, "yaw": 1599, "system_time": 1778475454.3616488}
{"type": "attitude", "roll": 1.1, "pitch": 0.4, "yaw": 1, "system_time": 1778475454.5486689}
{"type": "rc", "roll": 1500, "pitch": 1500, "throttle": 1500, "yaw": 1599, "system_time": 1778475454.564776}
{"type": "attitude", "roll": 1.1, "pitch": 0.4, "yaw": 1, "system_time": 1778475454.652833}
{"type": "attitude", "roll": 1.1, "pitch": 0.4, "yaw": 1, "system_time": 1778475454.76385}
{"type": "attitude", "roll": 1.1, "pitch": 0.4, "yaw": 1, "system_time": 1778475455.067283}
{"type": "attitude", "roll": 1.1, "pitch": 0.4, "yaw": 1, "system_time": 1778475455.1705961}
{"type": "attitude", "roll": 1.1, "pitch": 0.4, "yaw": 1, "system_time": 1778475456.073496}
{"type": "rc", "roll": 1500, "pitch": 1500, "throttle": 1500, "yaw": 1599, "system_time": 1778475456.086261}
{"type": "attitude", "roll": 1.1, "pitch": 0.3, "yaw": 1, "system_time": 1778475456.783364}
{"type": "attitude", "roll": 1.1, "pitch": 0.3, "yaw": 1, "system_time": 1778475457.60284}
{"type": "rc", "roll": 1500, "pitch": 1500, "throttle": 1500, "yaw": 1599, "system_time": 1778475457.615592}
{"type": "attitude", "roll": 1.1, "pitch": 0.3, "yaw": 1, "system_time": 1778475457.795787}
{"type": "rc", "roll": 1500, "pitch": 1500, "throttle": 1500, "yaw": 1599, "system_time": 1778475457.8085918}
{"type": "attitude", "roll": 1.1, "pitch": 0.3, "yaw": 1, "system_time": 1778475458.102616}
{"type": "rc", "roll": 1500, "pitch": 1500, "throttle": 1500, "yaw": 1599, "system_time": 1778475458.1111119}
{"type": "attitude", "roll": 1.1, "pitch": 0.3, "yaw": 1, "system_time": 1778475458.321126}
{"type": "attitude", "roll": 1.1, "pitch": 0.3, "yaw": 1, "system_time": 1778475458.830936}
{"type": "rc", "roll": 1500, "pitch": 1500, "throttle": 1500, "yaw": 1599, "system_time": 1778475458.835932}
{"type": "attitude", "roll": 1.1, "pitch": 0.3, "yaw": 1, "system_time": 1778475459.231016}
{"type": "rc", "roll": 1500, "pitch": 1500, "throttle": 1500, "yaw": 1599, "system_time": 1778475459.2429829}
{"type": "analog", "vbat": 23.1, "current": 0.0, "system_time": 1778475459.301316}
{"type": "attitude", "roll": 1.1, "pitch": 0.3, "yaw": 1, "system_time": 1778475459.544377}
{"type": "attitude", "roll": 1.1, "pitch": 0.3, "yaw": 1, "system_time": 1778475459.7352011}
{"type": "attitude", "roll": 1.1, "pitch": 0.3, "yaw": 1, "system_time": 1778475459.95484}
{"type": "attitude", "roll": 1.1, "pitch": 0.3, "yaw": 1, "system_time": 1778475460.035019}
{"type": "rc", "roll": 1500, "pitch": 1500, "throttle": 1500, "yaw": 1599, "system_time": 1778475460.059569}
{"type": "attitude", "roll": 1.1, "pitch": 0.3, "yaw": 1, "system_time": 1778475461.259609}
{"type": "rc", "roll": 1500, "pitch": 1500, "throttle": 1500, "yaw": 1599, "system_time": 1778475461.2692301}
{"type": "attitude", "roll": 1.1, "pitch": 0.3, "yaw": 1, "system_time": 1778475461.5624099}
{"type": "rc", "roll": 1500, "pitch": 1500, "throttle": 1500, "yaw": 1599, "system_time": 1778475461.575732}
{"type": "attitude", "roll": 1.1, "pitch": 0.3, "yaw": 1, "system_time": 1778475461.7644029}
{"type": "analog", "vbat": 23.1, "current": 0.0, "system_time": 1778475461.823373}
{"type": "attitude", "roll": 1.1, "pitch": 0.3, "yaw": 1, "system_time": 1778475462.177165}
{"type": "attitude", "roll": 1.1, "pitch": 0.3, "yaw": 1, "system_time": 1778475464.307668}
{"type": "attitude", "roll": 1.1, "pitch": 0.3, "yaw": 1, "system_time": 1778475464.507838}
{"type": "attitude", "roll": 1.1, "pitch": 0.3, "yaw": 1, "system_time": 1778475464.7234812}
{"type": "attitude", "roll": 1.1, "pitch": 0.3, "yaw": 1, "system_time": 1778475464.81433}
{"type": "rc", "roll": 1500, "pitch": 1500, "throttle": 1500, "yaw": 1599, "system_time": 1778475464.8268201}
{"type": "attitude", "roll": 1.1, "pitch": 0.3, "yaw": 1, "system_time": 1778475465.024255}
{"type": "attitude", "roll": 1.1, "pitch": 0.3, "yaw": 1, "system_time": 1778475465.115555}
{"type": "rc", "roll": 1500, "pitch": 1500, "throttle": 1500, "yaw": 1599, "system_time": 1778475465.134412}
{"type": "attitude", "roll": 1.1, "pitch": 0.3, "yaw": 1, "system_time": 1778475465.322613}
{"type": "rc", "roll": 1500, "pitch": 1500, "throttle": 1500, "yaw": 1599, "system_time": 1778475465.3359292}
{"type": "attitude", "roll": 1.1, "pitch": 0.3, "yaw": 1, "system_time": 1778475465.5251641}
{"type": "rc", "roll": 1500, "pitch": 1500, "throttle": 1500, "yaw": 1599, "system_time": 1778475465.5403671}
{"type": "attitude", "roll": 1.1, "pitch": 0.3, "yaw": 1, "system_time": 1778475465.6284459}
{"type": "attitude", "roll": 1.1, "pitch": 0.3, "yaw": 1, "system_time": 1778475465.730975}
{"type": "rc", "roll": 1500, "pitch": 1500, "throttle": 1500, "yaw": 1599, "system_time": 1778475465.744182}
{"type": "attitude", "roll": 1.1, "pitch": 0.3, "yaw": 1, "system_time": 1778475466.2481458}
{"type": "analog", "vbat": 23.1, "current": 0.06, "system_time": 1778475466.3384929}
{"type": "attitude", "roll": 1.1, "pitch": 0.3, "yaw": 1, "system_time": 1778475466.548393}
{"type": "attitude", "roll": 1.1, "pitch": 0.3, "yaw": 1, "system_time": 1778475466.743735}
{"type": "rc", "roll": 1500, "pitch": 1500, "throttle": 1500, "yaw": 1599, "system_time": 1778475466.755319}
{"type": "attitude", "roll": 1.1, "pitch": 0.3, "yaw": 1, "system_time": 1778475467.045536}
{"type": "rc", "roll": 1500, "pitch": 1500, "throttle": 1500, "yaw": 1599, "system_time": 1778475467.0598269}
{"type": "attitude", "roll": 1.1, "pitch": 0.3, "yaw": 1, "system_time": 1778475467.564914}
{"type": "rc", "roll": 1500, "pitch": 1500, "throttle": 1500, "yaw": 1599, "system_time": 1778475467.574778}
{"type": "attitude", "roll": 1.1, "pitch": 0.3, "yaw": 1, "system_time": 1778475467.862059}
{"type": "attitude", "roll": 1.1, "pitch": 0.3, "yaw": 1, "system_time": 1778475468.070399}
{"type": "attitude", "roll": 1.1, "pitch": 0.3, "yaw": 1, "system_time": 1778475468.1727371}
{"type": "analog", "vbat": 23.1, "current": 0.0, "system_time": 1778475468.344932}
{"type": "attitude", "roll": 1.1, "pitch": 0.3, "yaw": 1, "system_time": 1778475468.7764459}
{"type": "attitude", "roll": 1.1, "pitch": 0.3, "yaw": 1, "system_time": 1778475469.296822}
{"type": "attitude", "roll": 1.1, "pitch": 0.3, "yaw": 1, "system_time": 1778475469.700833}
{"type": "analog", "vbat": 23.1, "current": 0.0, "system_time": 1778475471.361631}
{"type": "analog", "vbat": 23.0, "current": 0.06, "system_time": 1778475472.863461}
{"type": "attitude", "roll": 1.1, "pitch": 0.3, "yaw": 1, "system_time": 1778475473.055839}
{"type": "attitude", "roll": 1.1, "pitch": 0.3, "yaw": 1, "system_time": 1778475473.255965}
{"type": "attitude", "roll": 1.1, "pitch": 0.3, "yaw": 1, "system_time": 1778475473.357951}
{"type": "attitude", "roll": 1.1, "pitch": 0.3, "yaw": 1, "system_time": 1778475473.5444748}
{"type": "rc", "roll": 1500, "pitch": 1500, "throttle": 1500, "yaw": 1599, "system_time": 1778475473.5685601}
{"type": "attitude", "roll": 1.1, "pitch": 0.3, "yaw": 1, "system_time": 1778475473.7659369}
{"type": "attitude", "roll": 1.1, "pitch": 0.3, "yaw": 1, "system_time": 1778475477.0191271}
{"type": "attitude", "roll": 1.1, "pitch": 0.3, "yaw": 1, "system_time": 1778475477.108593}
{"type": "attitude", "roll": 1.1, "pitch": 0.3, "yaw": 1, "system_time": 1778475477.524245}
{"type": "attitude", "roll": 1.1, "pitch": 0.3, "yaw": 1, "system_time": 1778475478.224567}
{"type": "rc", "roll": 1500, "pitch": 1500, "throttle": 1500, "yaw": 1599, "system_time": 1778475478.243438}
{"type": "analog", "vbat": 23.1, "current": 0.06, "system_time": 1778475478.3803241}
{"type": "attitude", "roll": 1.1, "pitch": 0.3, "yaw": 1, "system_time": 1778475478.745613}
{"type": "attitude", "roll": 1.1, "pitch": 0.3, "yaw": 1, "system_time": 1778475478.844414}
{"type": "attitude", "roll": 1.1, "pitch": 0.3, "yaw": 1, "system_time": 1778475479.0485241}
{"type": "attitude", "roll": 1.1, "pitch": 0.4, "yaw": 1, "system_time": 1778475479.766867}
{"type": "attitude", "roll": 1.1, "pitch": 0.3, "yaw": 1, "system_time": 1778475479.8863628}
{"type": "attitude", "roll": 1.1, "pitch": 0.3, "yaw": 1, "system_time": 1778475480.283606}
{"type": "attitude", "roll": 1.1, "pitch": 0.3, "yaw": 1, "system_time": 1778475480.461888}
{"type": "attitude", "roll": 1.1, "pitch": 0.3, "yaw": 1, "system_time": 1778475480.87165}
{"type": "rc", "roll": 1500, "pitch": 1500, "throttle": 1500, "yaw": 1599, "system_time": 1778475480.88697}
{"type": "attitude", "roll": 1.1, "pitch": 0.3, "yaw": 1, "system_time": 1778475481.289835}
{"type": "attitude", "roll": 1.1, "pitch": 0.3, "yaw": 1, "system_time": 1778475481.4845881}
{"type": "rc", "roll": 1500, "pitch": 1500, "throttle": 1500, "yaw": 1599, "system_time": 1778475481.496724}
{"type": "analog", "vbat": 23.1, "current": 0.06, "system_time": 1778475482.3943639}
{"type": "attitude", "roll": 1.1, "pitch": 0.3, "yaw": 1, "system_time": 1778475485.543461}
{"type": "attitude", "roll": 1.1, "pitch": 0.3, "yaw": 1, "system_time": 1778475485.7468631}
{"type": "attitude", "roll": 1.1, "pitch": 0.3, "yaw": 1, "system_time": 1778475486.040267}
{"type": "attitude", "roll": 1.1, "pitch": 0.3, "yaw": 1, "system_time": 1778475486.160658}
{"type": "attitude", "roll": 1.1, "pitch": 0.3, "yaw": 1, "system_time": 1778475486.2466009}
{"type": "rc", "roll": 1500, "pitch": 1500, "throttle": 1500, "yaw": 1599, "system_time": 1778475486.261089}
{"type": "attitude", "roll": 1.1, "pitch": 0.3, "yaw": 1, "system_time": 1778475486.348691}
{"type": "rc", "roll": 1500, "pitch": 1500, "throttle": 1500, "yaw": 1599, "system_time": 1778475486.361053}
{"type": "attitude", "roll": 1.1, "pitch": 0.3, "yaw": 1, "system_time": 1778475486.864343}
{"type": "attitude", "roll": 1.1, "pitch": 0.3, "yaw": 1, "system_time": 1778475486.964345}
{"type": "attitude", "roll": 1.1, "pitch": 0.3, "yaw": 1, "system_time": 1778475487.065973}
{"type": "attitude", "roll": 1.1, "pitch": 0.3, "yaw": 1, "system_time": 1778475487.269871}
{"type": "attitude", "roll": 1.1, "pitch": 0.3, "yaw": 1, "system_time": 1778475489.712821}
{"type": "attitude", "roll": 1.1, "pitch": 0.3, "yaw": 1, "system_time": 1778475489.804375}
{"type": "rc", "roll": 1500, "pitch": 1500, "throttle": 1500, "yaw": 1599, "system_time": 1778475489.8159769}
{"type": "attitude", "roll": 1.1, "pitch": 0.3, "yaw": 1, "system_time": 1778475490.014884}
{"type": "attitude", "roll": 1.1, "pitch": 0.3, "yaw": 1, "system_time": 1778475492.746162}
{"type": "attitude", "roll": 1.1, "pitch": 0.3, "yaw": 1, "system_time": 1778475492.953094}
{"type": "attitude", "roll": 1.1, "pitch": 0.3, "yaw": 1, "system_time": 1778475493.147595}
{"type": "attitude", "roll": 1.1, "pitch": 0.3, "yaw": 1, "system_time": 1778475493.258295}
{"type": "attitude", "roll": 1.1, "pitch": 0.3, "yaw": 1, "system_time": 1778475493.3593118}
{"type": "analog", "vbat": 23.0, "current": 0.0, "system_time": 1778475494.462475}
{"type": "analog", "vbat": 23.1, "current": 0.0, "system_time": 1778475495.968531}
{"type": "attitude", "roll": 1.1, "pitch": 0.3, "yaw": 1, "system_time": 1778475496.282659}
{"type": "rc", "roll": 1500, "pitch": 1500, "throttle": 1500, "yaw": 1599, "system_time": 1778475496.294903}
{"type": "attitude", "roll": 1.1, "pitch": 0.3, "yaw": 1, "system_time": 1778475496.889649}
{"type": "rc", "roll": 1500, "pitch": 1500, "throttle": 1500, "yaw": 1599, "system_time": 1778475496.913989}
{"type": "attitude", "roll": 1.1, "pitch": 0.3, "yaw": 1, "system_time": 1778475496.992377}
{"type": "rc", "roll": 1500, "pitch": 1500, "throttle": 1500, "yaw": 1599, "system_time": 1778475497.004906}
{"type": "attitude", "roll": 1.1, "pitch": 0.3, "yaw": 1, "system_time": 1778475497.1019819}
{"type": "rc", "roll": 1500, "pitch": 1500, "throttle": 1500, "yaw": 1599, "system_time": 1778475497.115378}
{"type": "attitude", "roll": 1.1, "pitch": 0.3, "yaw": 1, "system_time": 1778475497.3043892}
{"type": "attitude", "roll": 1.1, "pitch": 0.3, "yaw": 1, "system_time": 1778475497.5976698}
{"type": "rc", "roll": 1500, "pitch": 1500, "throttle": 1500, "yaw": 1599, "system_time": 1778475497.611124}
{"type": "attitude", "roll": 1.1, "pitch": 0.3, "yaw": 1, "system_time": 1778475497.718364}
{"type": "attitude", "roll": 1.1, "pitch": 0.3, "yaw": 1, "system_time": 1778475497.8004212}
{"type": "rc", "roll": 1500, "pitch": 1500, "throttle": 1500, "yaw": 1599, "system_time": 1778475497.813694}
{"type": "attitude", "roll": 1.1, "pitch": 0.3, "yaw": 1, "system_time": 1778475498.0023239}
{"type": "rc", "roll": 1500, "pitch": 1500, "throttle": 1500, "yaw": 1599, "system_time": 1778475498.017938}
{"type": "attitude", "roll": 1.1, "pitch": 0.3, "yaw": 1, "system_time": 1778475498.227509}
{"type": "attitude", "roll": 1.1, "pitch": 0.3, "yaw": 1, "system_time": 1778475498.318175}
{"type": "rc", "roll": 1500, "pitch": 1500, "throttle": 1500, "yaw": 1599, "system_time": 1778475498.3313122}
{"type": "analog", "vbat": 23.1, "current": 0.06, "system_time": 1778475498.4681458}
{"type": "attitude", "roll": 1.1, "pitch": 0.3, "yaw": 1, "system_time": 1778475500.9561532}
{"type": "attitude", "roll": 1.1, "pitch": 0.3, "yaw": 1, "system_time": 1778475501.049851}
{"type": "rc", "roll": 1500, "pitch": 1500, "throttle": 1500, "yaw": 1599, "system_time": 1778475501.063091}
{"type": "attitude", "roll": 1.1, "pitch": 0.3, "yaw": 1, "system_time": 1778475501.2539022}
{"type": "rc", "roll": 1500, "pitch": 1500, "throttle": 1500, "yaw": 1599, "system_time": 1778475501.2668018}
{"type": "analog", "vbat": 23.1, "current": 0.06, "system_time": 1778475501.4969778}
{"type": "attitude", "roll": 1.1, "pitch": 0.3, "yaw": 1, "system_time": 1778475502.275263}
{"type": "attitude", "roll": 1.1, "pitch": 0.3, "yaw": 1, "system_time": 1778475502.367081}
{"type": "attitude", "roll": 1.1, "pitch": 0.3, "yaw": 1, "system_time": 1778475502.769817}
{"type": "rc", "roll": 1500, "pitch": 1500, "throttle": 1500, "yaw": 1599, "system_time": 1778475502.781329}
{"type": "attitude", "roll": 1.1, "pitch": 0.3, "yaw": 1, "system_time": 1778475502.980468}
{"type": "attitude", "roll": 1.1, "pitch": 0.3, "yaw": 1, "system_time": 1778475503.082114}
{"type": "attitude", "roll": 1.1, "pitch": 0.3, "yaw": 1, "system_time": 1778475503.283283}
{"type": "rc", "roll": 1500, "pitch": 1500, "throttle": 1500, "yaw": 1599, "system_time": 1778475503.2956831}
{"type": "attitude", "roll": 1.1, "pitch": 0.3, "yaw": 1, "system_time": 1778475507.141365}
{"type": "attitude", "roll": 1.1, "pitch": 0.3, "yaw": 1, "system_time": 1778475507.344272}
{"type": "attitude", "roll": 1.1, "pitch": 0.3, "yaw": 1, "system_time": 1778475507.4464588}
{"type": "analog", "vbat": 23.1, "current": 0.0, "system_time": 1778475507.5252202}
{"type": "attitude", "roll": 1.1, "pitch": 0.3, "yaw": 1, "system_time": 1778475507.536951}
{"type": "rc", "roll": 1500, "pitch": 1500, "throttle": 1500, "yaw": 1599, "system_time": 1778475507.5499709}
{"type": "attitude", "roll": 1.1, "pitch": 0.3, "yaw": 1, "system_time": 1778475507.748894}
{"type": "attitude", "roll": 1.1, "pitch": 0.3, "yaw": 1, "system_time": 1778475507.842623}
{"type": "attitude", "roll": 1.1, "pitch": 0.3, "yaw": 1, "system_time": 1778475508.1549299}
{"type": "attitude", "roll": 1.1, "pitch": 0.3, "yaw": 1, "system_time": 1778475508.2515662}
{"type": "rc", "roll": 1500, "pitch": 1500, "throttle": 1500, "yaw": 1599, "system_time": 1778475508.264145}
{"type": "attitude", "roll": 1.1, "pitch": 0.3, "yaw": 1, "system_time": 1778475508.351558}
{"type": "rc", "roll": 1500, "pitch": 1500, "throttle": 1500, "yaw": 1599, "system_time": 1778475508.365411}
{"type": "attitude", "roll": 1.1, "pitch": 0.3, "yaw": 1, "system_time": 1778475508.4619021}
{"type": "attitude", "roll": 1.1, "pitch": 0.3, "yaw": 1, "system_time": 1778475508.552166}
{"type": "rc", "roll": 1500, "pitch": 1500, "throttle": 1500, "yaw": 1599, "system_time": 1778475508.5648372}
{"type": "attitude", "roll": 1.1, "pitch": 0.3, "yaw": 1, "system_time": 1778475508.867466}
{"type": "attitude", "roll": 1.1, "pitch": 0.3, "yaw": 1, "system_time": 1778475509.050401}
{"type": "rc", "roll": 1500, "pitch": 1500, "throttle": 1500, "yaw": 1599, "system_time": 1778475509.062002}
{"type": "attitude", "roll": 1.1, "pitch": 0.3, "yaw": 1, "system_time": 1778475509.269228}
{"type": "attitude", "roll": 1.1, "pitch": 0.3, "yaw": 1, "system_time": 1778475509.471932}
{"type": "attitude", "roll": 1.1, "pitch": 0.3, "yaw": 1, "system_time": 1778475509.576679}
{"type": "attitude", "roll": 1.1, "pitch": 0.3, "yaw": 1, "system_time": 1778475509.770591}
{"type": "rc", "roll": 1500, "pitch": 1500, "throttle": 1500, "yaw": 1599, "system_time": 1778475509.778912}
{"type": "attitude", "roll": 1.0, "pitch": 0.4, "yaw": 1, "system_time": 1778475510.069887}
{"type": "rc", "roll": 1500, "pitch": 1500, "throttle": 1500, "yaw": 1599, "system_time": 1778475510.094059}
{"type": "attitude", "roll": 1.0, "pitch": 0.4, "yaw": 1, "system_time": 1778475510.274584}
{"type": "attitude", "roll": 0.9, "pitch": 0.4, "yaw": 1, "system_time": 1778475510.787421}
{"type": "attitude", "roll": 1.1, "pitch": 0.4, "yaw": 1, "system_time": 1778475510.9908638}
{"type": "rc", "roll": 1500, "pitch": 1500, "throttle": 1500, "yaw": 1599, "system_time": 1778475511.003278}
{"type": "attitude", "roll": 1.0, "pitch": 0.5, "yaw": 3, "system_time": 1778475511.200332}
{"type": "attitude", "roll": 0.9, "pitch": 0.5, "yaw": 3, "system_time": 1778475511.402655}
{"type": "attitude", "roll": 1.0, "pitch": 0.4, "yaw": 3, "system_time": 1778475511.596123}
{"type": "attitude", "roll": 1.0, "pitch": 0.4, "yaw": 3, "system_time": 1778475512.2020822}
{"type": "rc", "roll": 1500, "pitch": 1500, "throttle": 1500, "yaw": 1599, "system_time": 1778475512.217556}
{"type": "attitude", "roll": 1.0, "pitch": 0.4, "yaw": 3, "system_time": 1778475512.3022678}
{"type": "rc", "roll": 1500, "pitch": 1500, "throttle": 1500, "yaw": 1599, "system_time": 1778475512.317875}
{"type": "attitude", "roll": 0.9, "pitch": 0.4, "yaw": 3, "system_time": 1778475512.825205}
{"type": "attitude", "roll": 1.0, "pitch": 0.4, "yaw": 3, "system_time": 1778475513.129761}
{"type": "attitude", "roll": 1.0, "pitch": 0.4, "yaw": 3, "system_time": 1778475513.534915}
{"type": "attitude", "roll": 1.0, "pitch": 0.4, "yaw": 3, "system_time": 1778475513.836351}
{"type": "attitude", "roll": 1.0, "pitch": 0.4, "yaw": 3, "system_time": 1778475514.0489652}
{"type": "attitude", "roll": 1.0, "pitch": 0.3, "yaw": 3, "system_time": 1778475514.2434251}
{"type": "attitude", "roll": 1.1, "pitch": 0.3, "yaw": 3, "system_time": 1778475514.344543}
{"type": "attitude", "roll": 1.0, "pitch": 0.4, "yaw": 4, "system_time": 1778475515.052043}
{"type": "rc", "roll": 1500, "pitch": 1500, "throttle": 1500, "yaw": 1599, "system_time": 1778475515.0646698}
{"type": "attitude", "roll": 1.0, "pitch": 0.4, "yaw": 4, "system_time": 1778475515.2538612}
{"type": "attitude", "roll": 1.0, "pitch": 0.4, "yaw": 4, "system_time": 1778475515.569412}
{"type": "attitude", "roll": 1.0, "pitch": 0.4, "yaw": 4, "system_time": 1778475515.862387}
{"type": "attitude", "roll": 1.0, "pitch": 0.4, "yaw": 4, "system_time": 1778475515.974277}
{"type": "attitude", "roll": 1.0, "pitch": 0.4, "yaw": 4, "system_time": 1778475516.266409}
{"type": "rc", "roll": 1500, "pitch": 1500, "throttle": 1500, "yaw": 1599, "system_time": 1778475516.2788968}
{"type": "analog", "vbat": 23.1, "current": 0.0, "system_time": 1778475516.560135}
{"type": "attitude", "roll": 1.0, "pitch": 0.4, "yaw": 4, "system_time": 1778475516.590745}
{"type": "attitude", "roll": 1.0, "pitch": 0.4, "yaw": 4, "system_time": 1778475516.79318}
{"type": "attitude", "roll": 1.0, "pitch": 0.4, "yaw": 4, "system_time": 1778475517.090742}
{"type": "rc", "roll": 1500, "pitch": 1500, "throttle": 1500, "yaw": 1599, "system_time": 1778475517.1013088}
{"type": "attitude", "roll": 1.0, "pitch": 0.4, "yaw": 4, "system_time": 1778475517.299388}
{"type": "attitude", "roll": 1.0, "pitch": 0.4, "yaw": 4, "system_time": 1778475517.594604}
{"type": "rc", "roll": 1500, "pitch": 1500, "throttle": 1500, "yaw": 1599, "system_time": 1778475517.610354}
{"type": "attitude", "roll": 1.0, "pitch": 0.4, "yaw": 4, "system_time": 1778475517.7089002}
{"type": "attitude", "roll": 1.0, "pitch": 0.4, "yaw": 4, "system_time": 1778475517.799061}
{"type": "attitude", "roll": 1.0, "pitch": 0.4, "yaw": 4, "system_time": 1778475518.2221482}
{"type": "attitude", "roll": 1.0, "pitch": 0.4, "yaw": 4, "system_time": 1778475518.424895}
{"type": "attitude", "roll": 1.0, "pitch": 0.4, "yaw": 4, "system_time": 1778475518.526367}
{"type": "attitude", "roll": 1.0, "pitch": 0.4, "yaw": 4, "system_time": 1778475518.823196}
{"type": "attitude", "roll": 1.0, "pitch": 0.4, "yaw": 4, "system_time": 1778475519.118552}
{"type": "attitude", "roll": 1.0, "pitch": 0.4, "yaw": 4, "system_time": 1778475520.13459}
{"type": "attitude", "roll": 1.0, "pitch": 0.4, "yaw": 4, "system_time": 1778475520.2449532}
{"type": "attitude", "roll": 1.0, "pitch": 0.4, "yaw": 4, "system_time": 1778475520.448738}
{"type": "attitude", "roll": 1.0, "pitch": 0.4, "yaw": 4, "system_time": 1778475520.5510862}
{"type": "attitude", "roll": 1.0, "pitch": 0.4, "yaw": 4, "system_time": 1778475520.7575612}
{"type": "attitude", "roll": 1.0, "pitch": 0.4, "yaw": 4, "system_time": 1778475521.051404}
{"type": "rc", "roll": 1500, "pitch": 1500, "throttle": 1500, "yaw": 1599, "system_time": 1778475521.063343}
{"type": "attitude", "roll": 1.1, "pitch": 0.3, "yaw": 4, "system_time": 1778475521.2530072}
{"type": "rc", "roll": 1500, "pitch": 1500, "throttle": 1500, "yaw": 1599, "system_time": 1778475521.265291}
{"type": "attitude", "roll": 1.1, "pitch": 0.3, "yaw": 4, "system_time": 1778475522.0751731}
{"type": "attitude", "roll": 1.1, "pitch": 0.3, "yaw": 4, "system_time": 1778475522.278858}
{"type": "attitude", "roll": 1.1, "pitch": 0.3, "yaw": 4, "system_time": 1778475522.481706}
{"type": "attitude", "roll": 1.1, "pitch": 0.3, "yaw": 4, "system_time": 1778475523.292484}
{"type": "rc", "roll": 1500, "pitch": 1500, "throttle": 1500, "yaw": 1599, "system_time": 1778475523.304558}
{"type": "attitude", "roll": 1.1, "pitch": 0.3, "yaw": 4, "system_time": 1778475523.392949}
{"type": "attitude", "roll": 1.1, "pitch": 0.3, "yaw": 4, "system_time": 1778475523.4917738}
{"type": "rc", "roll": 1500, "pitch": 1500, "throttle": 1500, "yaw": 1599, "system_time": 1778475523.505122}
{"type": "attitude", "roll": 1.1, "pitch": 0.3, "yaw": 4, "system_time": 1778475524.0089788}
{"type": "attitude", "roll": 1.1, "pitch": 0.3, "yaw": 4, "system_time": 1778475524.217497}
{"type": "attitude", "roll": 1.1, "pitch": 0.3, "yaw": 4, "system_time": 1778475524.318642}
{"type": "attitude", "roll": 1.1, "pitch": 0.3, "yaw": 4, "system_time": 1778475524.5202198}
{"type": "analog", "vbat": 23.1, "current": 0.0, "system_time": 1778475524.590539}
{"type": "attitude", "roll": 1.1, "pitch": 0.3, "yaw": 4, "system_time": 1778475524.822082}
{"type": "attitude", "roll": 1.1, "pitch": 0.3, "yaw": 4, "system_time": 1778475525.032104}
{"type": "attitude", "roll": 1.1, "pitch": 0.3, "yaw": 4, "system_time": 1778475525.335932}
{"type": "attitude", "roll": 1.1, "pitch": 0.3, "yaw": 4, "system_time": 1778475528.162803}
{"type": "attitude", "roll": 1.1, "pitch": 0.3, "yaw": 4, "system_time": 1778475528.254299}
{"type": "rc", "roll": 1500, "pitch": 1500, "throttle": 1500, "yaw": 1599, "system_time": 1778475528.2664452}
{"type": "attitude", "roll": 1.1, "pitch": 0.3, "yaw": 4, "system_time": 1778475528.356004}
{"type": "rc", "roll": 1500, "pitch": 1500, "throttle": 1500, "yaw": 1599, "system_time": 1778475528.3702168}
{"type": "analog", "vbat": 23.1, "current": 0.0, "system_time": 1778475529.605418}
{"type": "analog", "vbat": 23.1, "current": 0.0, "system_time": 1778475531.120399}
{"type": "attitude", "roll": 1.1, "pitch": 0.3, "yaw": 4, "system_time": 1778475532.01422}
{"type": "attitude", "roll": 1.1, "pitch": 0.3, "yaw": 4, "system_time": 1778475532.4169002}
{"type": "attitude", "roll": 1.1, "pitch": 0.3, "yaw": 4, "system_time": 1778475532.5163069}
{"type": "rc", "roll": 1500, "pitch": 1500, "throttle": 1500, "yaw": 1599, "system_time": 1778475532.531486}
{"type": "attitude", "roll": 1.1, "pitch": 0.3, "yaw": 4, "system_time": 1778475532.607691}
{"type": "rc", "roll": 1500, "pitch": 1500, "throttle": 1500, "yaw": 1599, "system_time": 1778475532.621931}
{"type": "attitude", "roll": 1.1, "pitch": 0.3, "yaw": 4, "system_time": 1778475533.018493}
{"type": "analog", "vbat": 23.1, "current": 0.0, "system_time": 1778475533.6226408}
